{"html_attributions": [], "next_page_token": "AUGGfZmoiwdAlZvUFSQlzErKN1fzeCp7Ouz1GL6k8Q0eNY54_BPcb5-OnpX5R1Mc5L7SwmyTNgoTjCDLUUzUZm4txcAHGt-flUku7b1huzC0J8umISgWjnKKz-y6MagTbZI0Y8fpbLvqh0bw05xi8tcjeKwKdLCK72eKvpbvXtqYvikaKHfmWYbvA9gplrP-kQNlem3zTTd4NCFXW4zOEWasOvb-r01ZB918M9gzCl9711ZynaraSrtZ_prINN4vypaybD6EDJ2H6Ggu4vTlvzxNSdxgjUH7VPBpIkPdbfF0cbFZYbVMqHlS6BSaH2ppNGACnNncktm5LUBrNanyyK6LW4b_jUA7MZq_136I8tRTae_3JCzcvHUHOlSotYqamSscSI7kvKX6KSqbPGPwf9f4cSNbbwDGzDeeP1XftTknP6ZQVt01jn60z6WeCvmu-SbO4gDyxGsFcr_T8SndJKgTj1LEWBBud5YMqkqvHgzC_AYhGTJbmgkBonQDnBdwPYyUOXz9rQ1dHFArvZH2MBGmatbhwAWdu2v57NePOKpF64oQooueBDCrFeCNEg7mOKm-xxS5YqpvlKAykrqOzLaDwCWY0tQ8dFKMOyP8Iv-imWdnF4-Yb9GJt0xz94Fz5AloiLGgY2Adgvue7LQS405C", "results": [{"business_status": "OPERATIONAL", "formatted_address": "Via Guizza Conselvana, 381, 35125 Padova PD", "geometry": {"location": {"lat": 45.3629343, "lng": 11.8711259}, "viewport": {"northeast": {"lat": 45.36429272989272, "lng": 11.87238612989272}, "southwest": {"lat": 45.36159307010728, "lng": 11.86968647010728}}}, "icon": "https://maps.gstatic.com/mapfiles/place_api/icons/v1/png_71/restaurant-71.png", "icon_background_color": "#FF9E67", "icon_mask_base_uri": "https://maps.gstatic.com/mapfiles/place_api/icons/v2/restaurant_pinlet", "name": "Ristorante Da Attilio", "opening_hours": {"open_now": true}, "photos": [{"height": 2252, "html_attributions": ["<a href=\"https://maps.google.com/maps/contrib/101751304525453451388\">Mauro Costa</a>"], "photo_reference": "AUGGfZkNi4UOLYhZ5Xbm3cPO3frdPA36Yon6PAw99TM2tDFDDnaxtPjJi-u12ZppNQDKNmdTrs2JJcPTewruExC6fXbn4RUViePuOYgLqSGB8eUfJMviDTHVxRuwDi-nLQ_ID1M9BEKi7IoHLux0W4E3PGHzFAehiukKqTMxgoWETRMRWdG9", "width": 4000}], "place_id": "ChIJPTRpx3jbfkcRx5Gv5a-P484", "plus_code": {"compound_code": "9V7C+5F Padua, Province of Padua", "global_code": "8FQH9V7C+5F"}, "price_level": 2, "rating": 4.5, "reference": "ChIJPTRpx3jbfkcRx5Gv5a-P484", "types": ["restaurant", "food", "point_of_interest", "establishment"], "user_ratings_total": 458}, {"business_status": "OPERATIONAL", "formatted_address": "Via Chiesanuova, 131, 35139 Padova PD", "geometry": {"location": {"lat": 45.413494, "lng": 11.8371232}, "viewport": {"northeast": {"lat": 45.41479697989272, "lng": 11.83853092989272}, "southwest": {"lat": 45.41209732010728, "lng": 11.83583127010728}}}, "icon": "https://maps.gstatic.com/mapfiles/place_api/icons/v1/png_71/restaurant-71.png", "icon_background_color": "#FF9E67", "icon_mask_base_uri": "https://maps.gstatic.com/mapfiles/place_api/icons/v2/restaurant_pinlet", "name": "Strada Facendo a Padova - Ristorante etico - Cibo, Arte e Incontri", "opening_hours": {"open_now": true}, "photos": [{"height": 2988, "html_attributions": ["<a href=\"https://maps.google.com/maps/contrib/116391937871953145587\">Paolo Zovato</a>"], "photo_reference": "AUGGfZlvAwCfK9LVmjwh-6vihFP6qnekVQKCavRPoMnYJDkFQYFyt_ny3JWgGoEkXh6hOV9dIv5NZ1Xd6x4KlbuSkr7jjFZF8p3rKFJutJjnhWxTPE4Kn6EJriGCNUAcMNCv3K0LaFJDwvEuA6C_TuBUYuelJmb9WzGC63asU7wW1IK20PFD", "width": 5312}], "place_id": "ChIJeeU78IjZfkcReoht8Oi1dQs", "plus_code": {"compound_code": "CR7P+9V Padua, Province of Padua", "global_code": "8FQHCR7P+9V"}, "price_level": 2, "rating": 4.5, "reference": "ChIJeeU78IjZfkcReoht8Oi1dQs", "types": ["restaurant", "food", "point_of_interest", "establishment"], "user_ratings_total": 581}, {"business_status": "OPERATIONAL", "formatted_address": "Via Bartolomeo Cristofori, 12a, 35137 Padova PD", "geometry": {"location": {"lat": 45.4127446, "lng": 11.8711627}, "viewport": {"northeast": {"lat": 45.41409692989272, "lng": 11.87251407989272}, "southwest": {"lat": 45.41139727010728, "lng": 11.86981442010728}}}, "icon": "https://maps.gstatic.com/mapfiles/place_api/icons/v1/png_71/restaurant-71.png", "icon_background_color": "#FF9E67", "icon_mask_base_uri": "https://maps.gstatic.com/mapfiles/place_api/icons/v2/restaurant_pinlet", "name": "A Banda Del Buso", "opening_hours": {"open_now": true}, "photos": [{"height": 3840, "html_attributions": ["<a href=\"https://maps.google.com/maps/contrib/104360599246311016519\">Athos Lerpini</a>"], "photo_reference": "AUGGfZnzGCPVLurL9y8_8PDIzGbssnRcbDxFTHY7bl-q_iPvwBgbbnVRjpBvhUfsVtY4VzVAFEvu5Y50HbeF32rWIBMHN9LhGkcKWrf0-o8HwbiG90QL8AIQh7RKe0eAfFD5tGBc9WiS6WoAeBWstCnoJ_m4BlaLWyG0KgC1du3t2QsP4FM", "width": 5120}], "place_id": "ChIJn0ipN6fbfkcRANpZ-fvlgl0", "plus_code": {"compound_code": "CV7C+3F Padua, Province of Padua", "global_code": "8FQHCV7C+3F"}, "price_level": 2, "rating": 4.5, "reference": "ChIJn0ipN6fbfkcRANpZ-fvlgl0", "types": ["restaurant", "food", "point_of_interest", "establishment"], "user_ratings_total": 1560}, {"business_status": "OPERATIONAL", "formatted_address": "Via Giosu\u00e8 Carducci, 2/B, 35123 Padova PD", "geometry": {"location": {"lat": 45.3970569, "lng": 11.8754157}, "viewport": {"northeast": {"lat": 45.39837002989272, "lng": 11.87688182989272}, "southwest": {"lat": 45.39567037010728, "lng": 11.87418217010728}}}, "icon": "https://maps.gstatic.com/mapfiles/place_api/icons/v1/png_71/restaurant-71.png", "icon_background_color": "#FF9E67", "icon_mask_base_uri": "https://maps.gstatic.com/mapfiles/place_api/icons/v2/restaurant_pinlet", "name": "Terrazza Carducci", "opening_hours": {"open_now": true}, "photos": [{"height": 4248, "html_attributions": ["<a href=\"https://maps.google.com/maps/contrib/117210816214821853277\">sylvie et Robert dhaussy</a>"], "photo_reference": "AUGGfZmJyr9-RN7segNlGeUpgSe3H-G2UD8pv7bSS0U9PsYZr6EXrHyAHxCe06pW4xj8jdNVRTmMQwc3RyeVCyUsgEypXU05U3ajXmJ8JevqWwc0jluOYKD-z8LpZzulALEEQy1Z7cSn71pFRt7Xnm89n5GalHdrZlwv9EqUXB0tRhuyjAVD", "width": 5664}], "place_id": "ChIJpThkkazbfkcR_ZAfff-TNO4", "plus_code": {"compound_code": "9VWG+R5 Padua, Province of Padua", "global_code": "8FQH9VWG+R5"}, "price_level": 2, "rating": 4.4, "reference": "ChIJpThkkazbfkcR_ZAfff-TNO4", "types": ["restaurant", "food", "point_of_interest", "establishment"], "user_ratings_total": 1000}, {"business_status": "OPERATIONAL", "formatted_address": "Via Aristide Gabelli, 2b, 35121 Padova PD", "geometry": {"location": {"lat": 45.4067381, "lng": 11.8838369}, "viewport": {"northeast": {"lat": 45.40830847989272, "lng": 11.88541662989272}, "southwest": {"lat": 45.40560882010727, "lng": 11.88271697010728}}}, "icon": "https://maps.gstatic.com/mapfiles/place_api/icons/v1/png_71/restaurant-71.png", "icon_background_color": "#FF9E67", "icon_mask_base_uri": "https://maps.gstatic.com/mapfiles/place_api/icons/v2/restaurant_pinlet", "name": "Osteria La Sofia", "opening_hours": {"open_now": true}, "photos": [{"height": 1800, "html_attributions": ["<a href=\"https://maps.google.com/maps/contrib/117778391631300857036\">Luca Feole</a>"], "photo_reference": "AUGGfZmnpY517w5Immim5Og12JuwfmGP6rvfcD3E9AHBxvrOy_xL2cCCFvKm2dKGQJfz703GNk4Aa2uRbUD-EouooePedLR-3l_kK6Nwnl2r-r8WW4CUIYJPgaM4lsM_9h235Nxvvabp-OxoCIzToc1z4BjyBJvPEQnC-9lIAaFHSDne7RRT", "width": 4000}], "place_id": "ChIJsyFieFfafkcRN_O0j_MdLPk", "plus_code": {"compound_code": "CV4M+MG Padua, Province of Padua", "global_code": "8FQHCV4M+MG"}, "price_level": 2, "rating": 4.3, "reference": "ChIJsyFieFfafkcRN_O0j_MdLPk", "types": ["restaurant", "food", "point_of_interest", "establishment"], "user_ratings_total": 484}, {"business_status": "OPERATIONAL", "formatted_address": "Str. del Santo, 75, 35010 Mejaniga PD", "geometry": {"location": {"lat": 45.4633878, "lng": 11.8945492}, "viewport": {"northeast": {"lat": 45.46466577989272, "lng": 11.89588637989272}, "southwest": {"lat": 45.46196612010728, "lng": 11.89318672010728}}}, "icon": "https://maps.gstatic.com/mapfiles/place_api/icons/v1/png_71/restaurant-71.png", "icon_background_color": "#FF9E67", "icon_mask_base_uri": "https://maps.gstatic.com/mapfiles/place_api/icons/v2/restaurant_pinlet", "name": "Ristorante Griglieria Pizzeria Hotel Antico Guerriero", "opening_hours": {"open_now": true}, "photos": [{"height": 3024, "html_attributions": ["<a href=\"https://maps.google.com/maps/contrib/110899400635322175552\">Ristorante Pizzeria Antico Guerriero</a>"], "photo_reference": "AUGGfZnea_IHuPqtzi2qgbb-QP8LtAwTipYG6gxJ3DBoOfu8hMhSuqBRAeY-u2uwfZKtgd7o6tIrjsxNWuFPxqg7J4Z4jwXx2GymPZSt_Svhp9T57K1YleRd3WYr2ylltLuU4iFESafOO-A_UiaHap1HnOndZXkorCSuwif4hJvLdX9M-_lx", "width": 4032}], "place_id": "ChIJpW5wYu_QfkcRn9XltKPMj1w", "plus_code": {"compound_code": "FV7V+9R Mejaniga, Province of Padua", "global_code": "8FQHFV7V+9R"}, "price_level": 2, "rating": 3.9, "reference": "ChIJpW5wYu_QfkcRn9XltKPMj1w", "types": ["restaurant", "food", "point_of_interest", "establishment"], "user_ratings_total": 641}, {"business_status": "OPERATIONAL", "formatted_address": "Via Stefano Breda, 3, 35139 Padova PD", "geometry": {"location": {"lat": 45.4080117, "lng": 11.8754582}, "viewport": {"northeast": {"lat": 45.40935272989272, "lng": 11.87681772989272}, "southwest": {"lat": 45.40665307010728, "lng": 11.87411807010728}}}, "icon": "https://maps.gstatic.com/mapfiles/place_api/icons/v1/png_71/restaurant-71.png", "icon_background_color": "#FF9E67", "icon_mask_base_uri": "https://maps.gstatic.com/mapfiles/place_api/icons/v2/restaurant_pinlet", "name": "Osteria Al Peronio", "opening_hours": {"open_now": true}, "photos": [{"height": 1960, "html_attributions": ["<a href=\"https://maps.google.com/maps/contrib/101182775793784174810\">\u0414\u043c\u0438\u0442\u0440\u0438\u0439 \u0414\u043e\u0431\u0440\u0438\u043d</a>"], "photo_reference": "AUGGfZmCtJLbIK4BX4z_cbW1142VVxBUXKnQEQCerStrx_FVO8tWgtvWUApV6ARZPFGnGc_gJwMpBTheZxlv6ziW_hIjrhhCLxImtGt3_XIef7JWs2XOevN4ol0mI-B4mFAE9QjMOcRqWBFf9iyRpzon-IIOY7RyO24pWDC-gzEi9AdSQKTo", "width": 4032}], "place_id": "ChIJLUDgA1DafkcR-dtY0yPNtyA", "plus_code": {"compound_code": "CV5G+65 Padua, Province of Padua", "global_code": "8FQHCV5G+65"}, "price_level": 2, "rating": 4.3, "reference": "ChIJLUDgA1DafkcR-dtY0yPNtyA", "types": ["restaurant", "food", "point_of_interest", "establishment"], "user_ratings_total": 435}, {"business_status": "OPERATIONAL", "formatted_address": "Via Argine Dx Piovego, 20, 35027 Noventana PD", "geometry": {"location": {"lat": 45.4069051, "lng": 11.9466933}, "viewport": {"northeast": {"lat": 45.40822072989273, "lng": 11.94803637989272}, "southwest": {"lat": 45.40552107010728, "lng": 11.94533672010728}}}, "icon": "https://maps.gstatic.com/mapfiles/place_api/icons/v1/png_71/restaurant-71.png", "icon_background_color": "#FF9E67", "icon_mask_base_uri": "https://maps.gstatic.com/mapfiles/place_api/icons/v2/restaurant_pinlet", "name": "Ristorante CA' NOVENA", "opening_hours": {"open_now": true}, "photos": [{"height": 4160, "html_attributions": ["<a href=\"https://maps.google.com/maps/contrib/113876475624580216623\">Mirca Torresin</a>"], "photo_reference": "AUGGfZkC8h6tL3d35qp9imw-qq_jHlMXaMMViqeLkELgoSQfGW_4Jo2fT6MxV3BAr2-_xCdTs44oAnPLioTt53xZAgPCxjfyIZ6q7NJXV7-zIN6fWj5_hPkxUlAG1pB9MmVp2iLvwhSjmElXJ0iVzSPkI9ElJbji9fRYDujGt11DFnGDUr71", "width": 3120}], "place_id": "ChIJ42w6oiTFfkcR29FnNZ0Qu3w", "plus_code": {"compound_code": "CW4W+QM Noventana, Province of Padua", "global_code": "8FQHCW4W+QM"}, "price_level": 2, "rating": 4.3, "reference": "ChIJ42w6oiTFfkcR29FnNZ0Qu3w", "types": ["restaurant", "food", "point_of_interest", "establishment"], "user_ratings_total": 166}, {"business_status": "OPERATIONAL", "formatted_address": "Via Santa Sofia, 1, 35121 Padova PD", "geometry": {"location": {"lat": 45.40509720000001, "lng": 11.8813155}, "viewport": {"northeast": {"lat": 45.40646002989273, "lng": 11.88265347989272}, "southwest": {"lat": 45.40376037010729, "lng": 11.87995382010728}}}, "icon": "https://maps.gstatic.com/mapfiles/place_api/icons/v1/png_71/restaurant-71.png", "icon_background_color": "#FF9E67", "icon_mask_base_uri": "https://maps.gstatic.com/mapfiles/place_api/icons/v2/restaurant_pinlet", "name": "Osteria Nane della Giulia", "opening_hours": {"open_now": true}, "photos": [{"height": 2608, "html_attributions": ["<a href=\"https://maps.google.com/maps/contrib/108405359718135036038\">Davide Frigerio</a>"], "photo_reference": "AUGGfZk7aoruc3DF4tnyqD33dg4UPLZ_MUOZ-X7CLIXnkUcYR4MmnQ311s5VLRtgutrTCrKjA16VZG1P3qOEI87VzRV8LLyt6ayK_RxhU2jx20lUEAXWX1nu_cThmtgYV3msgR1xM7eTy4gurGydzZIoT-KNf68r5Mvd4DpK49miF2viUye1", "width": 4624}], "place_id": "ChIJL7_PE1fafkcRgSh4yy4s7hY", "plus_code": {"compound_code": "CV4J+2G Padua, Province of Padua", "global_code": "8FQHCV4J+2G"}, "price_level": 2, "rating": 4.3, "reference": "ChIJL7_PE1fafkcRgSh4yy4s7hY", "types": ["restaurant", "food", "point_of_interest", "establishment"], "user_ratings_total": 1514}, {"business_status": "OPERATIONAL", "formatted_address": "Via Po, 197, 35135 Padova PD", "geometry": {"location": {"lat": 45.4539673, "lng": 11.8570263}, "viewport": {"northeast": {"lat": 45.45549287989272, "lng": 11.85833842989272}, "southwest": {"lat": 45.45279322010727, "lng": 11.85563877010728}}}, "icon": "https://maps.gstatic.com/mapfiles/place_api/icons/v1/png_71/restaurant-71.png", "icon_background_color": "#FF9E67", "icon_mask_base_uri": "https://maps.gstatic.com/mapfiles/place_api/icons/v2/restaurant_pinlet", "name": "Ristorante Aquattro Padova", "opening_hours": {"open_now": true}, "photos": [{"height": 1666, "html_attributions": ["<a href=\"https://maps.google.com/maps/contrib/109829537051132719727\">A Google User</a>"], "photo_reference": "AUGGfZkrS-EDqHar1losTuO6FNwdwEODE326WaEexmVcvbmq-R9emyfZ-Hs9PfrO3JJcm32h2GEdc32x-2Wy4G0YzQSBfH90b_kUBFUEGP_2Ejruq0Aokh4UYxm-28JEF_GLOgVQvS33oizOAeJL7w_-fHEiA6if1jeS_pggQYad3QGfrWU2", "width": 2500}], "place_id": "ChIJM40mU7LQfkcRPGT8E6UbtrI", "plus_code": {"compound_code": "FV34+HR Padua, Province of Padua", "global_code": "8FQHFV34+HR"}, "rating": 4.2, "reference": "ChIJM40mU7LQfkcRPGT8E6UbtrI", "types": ["restaurant", "food", "point_of_interest", "establishment"], "user_ratings_total": 89}, {"business_status": "OPERATIONAL", "formatted_address": "Via Fornace, 26, 35010 Limena PD", "geometry": {"location": {"lat": 45.4721692, "lng": 11.8382169}, "viewport": {"northeast": {"lat": 45.47348772989272, "lng": 11.83961292989272}, "southwest": {"lat": 45.47078807010728, "lng": 11.83691327010728}}}, "icon": "https://maps.gstatic.com/mapfiles/place_api/icons/v1/png_71/restaurant-71.png", "icon_background_color": "#FF9E67", "icon_mask_base_uri": "https://maps.gstatic.com/mapfiles/place_api/icons/v2/restaurant_pinlet", "name": "Ristorante Tombolato", "opening_hours": {"open_now": true}, "photos": [{"height": 1080, "html_attributions": ["<a href=\"https://maps.google.com/maps/contrib/104705163903168534529\">Loris Pavan</a>"], "photo_reference": "AUGGfZlIAZ4KNTHNHhqIkG6Yc90c3IigeW1wdZ4tmnshMnNK82piux9gAjKN-VxtpZlmgScSnymHvbOMprnk6KZHgspsCPo9PMwxOc01j-SUBWqn35D2MxHLf6_Mkw9xvc7z9pCO3cdeT_aAkU3kg-lCSy-UzHdZRu9qAInQUNVXnA5zyijd", "width": 1920}], "place_id": "ChIJAQtKXRbXfkcR7Rqeuk3FXhc", "plus_code": {"compound_code": "FRCQ+V7 Limena, Province of Padua", "global_code": "8FQHFRCQ+V7"}, "price_level": 2, "rating": 4, "reference": "ChIJAQtKXRbXfkcR7Rqeuk3FXhc", "types": ["restaurant", "food", "point_of_interest", "establishment"], "user_ratings_total": 844}, {"business_status": "OPERATIONAL", "formatted_address": "Via Valerio Flacco, 2, 35031 Abano Terme PD", "geometry": {"location": {"lat": 45.3536934, "lng": 11.7844733}, "viewport": {"northeast": {"lat": 45.35509987989273, "lng": 11.78597567989272}, "southwest": {"lat": 45.35240022010728, "lng": 11.78327602010728}}}, "icon": "https://maps.gstatic.com/mapfiles/place_api/icons/v1/png_71/restaurant-71.png", "icon_background_color": "#FF9E67", "icon_mask_base_uri": "https://maps.gstatic.com/mapfiles/place_api/icons/v2/restaurant_pinlet", "name": "Ristorante Pizzeria Sotto Sotto", "opening_hours": {"open_now": true}, "photos": [{"height": 2988, "html_attributions": ["<a href=\"https://maps.google.com/maps/contrib/113914799840331202657\">Sveta Varzar</a>"], "photo_reference": "AUGGfZmyLxzJ2HywaSME77gy-iaHI8voQtwIK5TQE5kTccI2Wij6gukaNNGeoyu-PpRA4TF_UYAEzF3oesOJhc03quKt1VUlj8DNmsyGXbDs0b81F3qwkyh0rie8Z37ctkuxQOjwnxzoPmMjj6f7ZUTOx--HFTpkprTk-pR34TWBJ56Yn8D-", "width": 5312}], "place_id": "ChIJMStIPpTefkcR6vzlMHX-Kuc", "plus_code": {"compound_code": "9Q3M+FQ Abano Terme, Province of Padua", "global_code": "8FQH9Q3M+FQ"}, "price_level": 2, "rating": 4, "reference": "ChIJMStIPpTefkcR6vzlMHX-Kuc", "types": ["restaurant", "food", "point_of_interest", "establishment"], "user_ratings_total": 1116}, {"business_status": "OPERATIONAL", "formatted_address": "Via del Portello, 93, 35129 Padova PD", "geometry": {"location": {"lat": 45.4091666, "lng": 11.8923082}, "viewport": {"northeast": {"lat": 45.41049332989271, "lng": 11.89379607989272}, "southwest": {"lat": 45.40779367010727, "lng": 11.89109642010728}}}, "icon": "https://maps.gstatic.com/mapfiles/place_api/icons/v1/png_71/restaurant-71.png", "icon_background_color": "#FF9E67", "icon_mask_base_uri": "https://maps.gstatic.com/mapfiles/place_api/icons/v2/restaurant_pinlet", "name": "AL PORTEO Pizzeria/Ristorante", "opening_hours": {"open_now": true}, "photos": [{"height": 3968, "html_attributions": ["<a href=\"https://maps.google.com/maps/contrib/101786347598132914900\">Giulio Giacometti</a>"], "photo_reference": "AUGGfZlg0hMlswEVIY0R3jxAvfZeIP22O_vnOBwOlxN5cdK-yEFNRvYkAXsUc_Lwo21gRAn5NgZVQoo_qSEFWhiloiPm75znq9MNysviq-tQA7qZk0vR5L1v0zq9stNjBjbfcrCiNyRW0s1Qz7bShwiMw3tA2o9Wja5wTOs2hM54QT04qAg1", "width": 2976}], "place_id": "ChIJP39wIffafkcR_HAseeSiBZ4", "plus_code": {"compound_code": "CV5R+MW Padua, Province of Padua", "global_code": "8FQHCV5R+MW"}, "price_level": 1, "rating": 4.4, "reference": "ChIJP39wIffafkcR_HAseeSiBZ4", "types": ["restaurant", "food", "point_of_interest", "establishment"], "user_ratings_total": 850}, {"business_status": "OPERATIONAL", "formatted_address": "Via Bosco Wollemborg, 19, 35100 Padova PD", "geometry": {"location": {"lat": 45.37267809999999, "lng": 11.8784511}, "viewport": {"northeast": {"lat": 45.37396317989273, "lng": 11.87980122989272}, "southwest": {"lat": 45.37126352010728, "lng": 11.87710157010728}}}, "icon": "https://maps.gstatic.com/mapfiles/place_api/icons/v1/png_71/restaurant-71.png", "icon_background_color": "#FF9E67", "icon_mask_base_uri": "https://maps.gstatic.com/mapfiles/place_api/icons/v2/restaurant_pinlet", "name": "Il Carro", "opening_hours": {"open_now": true}, "photos": [{"height": 2304, "html_attributions": ["<a href=\"https://maps.google.com/maps/contrib/117752798184899153163\">cip stefan</a>"], "photo_reference": "AUGGfZknGZt6AGitpmBkf7-lHPDPg5n6SAKmkJq3jtUoTYFLiaFR3dL7NYslrqz1z6K--AdhMj8HUYX4vyAbAa6-QrmzPBcSudD4-cfxo4NqCrsDMK2Yen30YUaeFIxLc0nzoLNqEXVEErdtnWVRAjrbnrFDyskCvGjCLTgFMifSRzHlzqEg", "width": 4096}], "place_id": "ChIJVRdlLHfbfkcR0Itrg7bUo4k", "plus_code": {"compound_code": "9VFH+3C Padua, Province of Padua", "global_code": "8FQH9VFH+3C"}, "price_level": 2, "rating": 4.2, "reference": "ChIJVRdlLHfbfkcR0Itrg7bUo4k", "types": ["restaurant", "food", "point_of_interest", "establishment"], "user_ratings_total": 959}, {"business_status": "OPERATIONAL", "formatted_address": "Via Romea, 107/B, 35020 Legnaro PD", "geometry": {"location": {"lat": 45.34010199999999, "lng": 11.9728369}, "viewport": {"northeast": {"lat": 45.34146162989272, "lng": 11.97413507989272}, "southwest": {"lat": 45.33876197010728, "lng": 11.97143542010728}}}, "icon": "https://maps.gstatic.com/mapfiles/place_api/icons/v1/png_71/restaurant-71.png", "icon_background_color": "#FF9E67", "icon_mask_base_uri": "https://maps.gstatic.com/mapfiles/place_api/icons/v2/restaurant_pinlet", "name": "Osteria dal Nonno (Ristorante)", "opening_hours": {"open_now": true}, "photos": [{"height": 4608, "html_attributions": ["<a href=\"https://maps.google.com/maps/contrib/117139969665419505761\">Maurizio Matarese</a>"], "photo_reference": "AUGGfZn9QQVt8UCBNqWPYKjsvA5_cT8gBAuQhSq7hZD-TwfMbjcKcBXFgPR6UDGGlO0K6ldpjkCDuUA1lylovzqTS6TX87RmIY-n7cljn91IJT310zkuHz3w87XJnO5uZO6GtS-iSQwoBxAscXiq1G6C62fHof3cvnGspTUErxW2Ai1zwcQF", "width": 3456}], "place_id": "ChIJ9c0txpHDfkcRP-WyUmxf8SQ", "plus_code": {"compound_code": "8XRF+24 Legnaro, Province of Padua", "global_code": "8FQH8XRF+24"}, "price_level": 2, "rating": 4.3, "reference": "ChIJ9c0txpHDfkcRP-WyUmxf8SQ", "types": ["restaurant", "food", "point_of_interest", "establishment"], "user_ratings_total": 1968}, {"business_status": "OPERATIONAL", "formatted_address": "Via Giuseppe Mazzini, 11, 35031 Abano Terme PD", "geometry": {"location": {"lat": 45.3572538, "lng": 11.7836247}, "viewport": {"northeast": {"lat": 45.35854307989272, "lng": 11.78516677989272}, "southwest": {"lat": 45.35584342010728, "lng": 11.78246712010728}}}, "icon": "https://maps.gstatic.com/mapfiles/place_api/icons/v1/png_71/restaurant-71.png", "icon_background_color": "#FF9E67", "icon_mask_base_uri": "https://maps.gstatic.com/mapfiles/place_api/icons/v2/restaurant_pinlet", "name": "Ristorante Aquolina by AQUA", "opening_hours": {"open_now": true}, "photos": [{"height": 6000, "html_attributions": ["<a href=\"https://maps.google.com/maps/contrib/116230879551369737941\">Omar Merlin</a>"], "photo_reference": "AUGGfZmjwZhUaXqb7poYq1LEwA-Es791BLp2wxwT-6FgKYg4DyAR2YoFVjl6AXZEM0l9ABhqNrKwl4CjK3jabazR0FFnM4LoWGJ_MdYoC8_Lic9uoFlO9282nSAvZakMCZxMO3gUb7e_5VOdff2FOLdc4fByzngGNHaJtF1spunB7a-uELPf", "width": 8000}], "place_id": "ChIJs1lxhJ3ffkcRtnlFGfJI7G0", "plus_code": {"compound_code": "9Q4M+WC Abano Terme, Province of Padua", "global_code": "8FQH9Q4M+WC"}, "price_level": 2, "rating": 4.7, "reference": "ChIJs1lxhJ3ffkcRtnlFGfJI7G0", "types": ["restaurant", "food", "point_of_interest", "establishment"], "user_ratings_total": 471}, {"business_status": "OPERATIONAL", "formatted_address": "Via Marsilio da Padova, 11, 35139 Padova PD", "geometry": {"location": {"lat": 45.4081502, "lng": 11.8760894}, "viewport": {"northeast": {"lat": 45.40950187989272, "lng": 11.87742652989272}, "southwest": {"lat": 45.40680222010728, "lng": 11.87472687010728}}}, "icon": "https://maps.gstatic.com/mapfiles/place_api/icons/v1/png_71/restaurant-71.png", "icon_background_color": "#FF9E67", "icon_mask_base_uri": "https://maps.gstatic.com/mapfiles/place_api/icons/v2/restaurant_pinlet", "name": "Ristorante Isola di Caprera", "opening_hours": {"open_now": true}, "photos": [{"height": 1200, "html_attributions": ["<a href=\"https://maps.google.com/maps/contrib/114368491516277087408\">Roberto Cenghiaro</a>"], "photo_reference": "AUGGfZk4Eu_NIbaNO5ZoHvxpBktX0opjb-1zO3AjiwXpaMkFWju-_nC5YQkWqdyRMe6q0oREruvBw-fLTtOSdstT55HbHX42WJKhmjWNpFDARSwwFwgHAAHXW1DvnRdxE-xfn4Lq9FDUrWgjIyjSUcvw51YvD3PnL9SS6xez5bM6DmQZvFQG", "width": 1599}], "place_id": "ChIJnZHvp1rafkcRbZ3xQigVz54", "plus_code": {"compound_code": "CV5G+7C Padua, Province of Padua", "global_code": "8FQHCV5G+7C"}, "price_level": 2, "rating": 4.1, "reference": "ChIJnZHvp1rafkcRbZ3xQigVz54", "types": ["restaurant", "food", "point_of_interest", "establishment"], "user_ratings_total": 700}, {"business_status": "OPERATIONAL", "formatted_address": "Via Ronchi, 19, 35020 Legnaro PD", "geometry": {"location": {"lat": 45.3540992, "lng": 11.9767313}, "viewport": {"northeast": {"lat": 45.35541322989272, "lng": 11.97821657989272}, "southwest": {"lat": 45.35271357010728, "lng": 11.97551692010728}}}, "icon": "https://maps.gstatic.com/mapfiles/place_api/icons/v1/png_71/restaurant-71.png", "icon_background_color": "#FF9E67", "icon_mask_base_uri": "https://maps.gstatic.com/mapfiles/place_api/icons/v2/restaurant_pinlet", "name": "Trattoria Ristorante Savio Ivo", "opening_hours": {"open_now": true}, "photos": [{"height": 3024, "html_attributions": ["<a href=\"https://maps.google.com/maps/contrib/114365968023157743762\">Gianni</a>"], "photo_reference": "AUGGfZnxIgE2MubO_xNPlArYPXsag-Sc6drLIkwpWxSvUl0RiC9DenQsIcCZJ59nPY9FImnwHxYb46dLcHdktfLbBTotQFwxRVZZHWvyccA3J1ZDjr2hGsdg-LD_zeG8hdSbnYTNc160I2bZzHpHF44Ep_zMxFCqBGM9kbPzFMFWSDPTCJNk", "width": 3024}], "place_id": "ChIJuY_uOXfEfkcRuh4Jwjzkx4E", "plus_code": {"compound_code": "9X3G+JM Legnaro, Province of Padua", "global_code": "8FQH9X3G+JM"}, "price_level": 2, "rating": 4.5, "reference": "ChIJuY_uOXfEfkcRuh4Jwjzkx4E", "types": ["restaurant", "food", "point_of_interest", "establishment"], "user_ratings_total": 1748}, {"business_status": "OPERATIONAL", "formatted_address": "Via Romana, 5, 35031 Abano Terme PD", "geometry": {"location": {"lat": 45.3574218, "lng": 11.8109321}, "viewport": {"northeast": {"lat": 45.35889212989272, "lng": 11.81205207989272}, "southwest": {"lat": 45.35619247010728, "lng": 11.80935242010728}}}, "icon": "https://maps.gstatic.com/mapfiles/place_api/icons/v1/png_71/restaurant-71.png", "icon_background_color": "#FF9E67", "icon_mask_base_uri": "https://maps.gstatic.com/mapfiles/place_api/icons/v2/restaurant_pinlet", "name": "Ristorante Pizzeria Al Tabaco", "opening_hours": {"open_now": true}, "photos": [{"height": 1568, "html_attributions": ["<a href=\"https://maps.google.com/maps/contrib/105764405138742894418\">Giorgia Barbiero</a>"], "photo_reference": "AUGGfZl2-lpHZxuVY7FxxuzuGWP4bV7PdHcNb7kcv0QRJfAmdjDMMMXWaVILb3YYk8NnoBYOnfM2qLhcjQO2p4GhIndqFov__TZJirEL22Us97NXbm6pHjTW3TVu6ebi_ZRt32pWzwSEvdDgptGZk-DQ4teF-2eX30aUnvmuaarkvrIuLxGb", "width": 2432}], "place_id": "ChIJ6T8Lo2HffkcRN0fOYPsDFW8", "plus_code": {"compound_code": "9R46+X9 Abano Terme, Province of Padua", "global_code": "8FQH9R46+X9"}, "price_level": 2, "rating": 4.3, "reference": "ChIJ6T8Lo2HffkcRN0fOYPsDFW8", "types": ["restaurant", "food", "point_of_interest", "establishment"], "user_ratings_total": 2755}, {"business_status": "OPERATIONAL", "formatted_address": "Str. del Santo, 144, 35010 Cadoneghe PD", "geometry": {"location": {"lat": 45.4824653, "lng": 11.8999265}, "viewport": {"northeast": {"lat": 45.48379712989272, "lng": 11.90145167989272}, "southwest": {"lat": 45.48109747010728, "lng": 11.89875202010728}}}, "icon": "https://maps.gstatic.com/mapfiles/place_api/icons/v1/png_71/restaurant-71.png", "icon_background_color": "#FF9E67", "icon_mask_base_uri": "https://maps.gstatic.com/mapfiles/place_api/icons/v2/restaurant_pinlet", "name": "Ristorante Ceccarello", "opening_hours": {"open_now": true}, "photos": [{"height": 3024, "html_attributions": ["<a href=\"https://maps.google.com/maps/contrib/103035320921712087132\">Silvano Ceccarello</a>"], "photo_reference": "AUGGfZlq06hABzzslffmUXggL3EM3ZKnYtgiauPhvrnOA8ZAsrdpBn7eVzXlKoVLD4OTvOg10-C61PiythS0c_G4tJ_5hvDWEJvMtyjDVxPCntC65MrOTYJSW2bFe0I0bqQIweVDmsPiuJKwYhZvNiQ2QjsOMo8Bj1J_9zBbbojLyWPBszVW", "width": 4032}], "place_id": "ChIJ4Y2UUhfRfkcR179vHPcoVQA", "plus_code": {"compound_code": "FVJX+XX Cadoneghe, Province of Padua", "global_code": "8FQHFVJX+XX"}, "price_level": 1, "rating": 4, "reference": "ChIJ4Y2UUhfRfkcR179vHPcoVQA", "types": ["restaurant", "food", "point_of_interest", "establishment"], "user_ratings_total": 465}], "status": "OK", "page_token": "AUGGfZmNmK-y042p1B1Y2i2us1QfapnWdRLQ2fgT737vwyg3YSut5YeejIxebA3HiyaIahQQkxOgTEfoyLmwU7-IqMmiRXVLO0L4wnnvpAN2S_Vgg1tyu-alcnSfF0WPtsxCYaJtW997AGLUbkamhj6NAox3rhTNuU-sa1ocbU_Wsg_wfTxVO2trVHMEqNQigchzww9miwpDtmEyjkJx5ijL5y_0Hihdo_6TIAoP3ulJa-gW0IyhJHpXID_S2rJPsgIw2oGfzTERISwK3Y114gzKcQedQ7SVqMm-rrgS7LGyhxY8xA3OTVT3RHCFg3K-4xL5PR1ZMMvhjiMTZpS9mFHdtGTlcyarCG53uFScAK-Vp3sFkdsfUqvgr59ragOUJJsLQijaMkB1sCVbMYZ94sJng6-kFbIRppTp0xewCZRySBLCJNKKBclWEW1sERpaP3M"}