{"html_attributions": [], "next_page_token": "AUGGfZmVRuRUhzGnYwP84-889XtIkVz6wMUZtzabq9cPCxT5gjmWi6b_GVAMJ6R2l3WLchVA-4qO9zJpHvJ9O0WEKsfvil2Jd8CLJx0jrXNOsKED210s-EVZ489kZePA4b7gDcrU8187m8YcJsZxzZWFmGrZnvZ1hRKXQKevSkCppqCu2D7plAWF07jk01OAIevRRGT0r1qhbkKSl14xB8Xf4g6aVWUKXdHjT7yRQCqF11yBpfXDrOzxYo_z23KdKUet5Af2tK_HduYeYJfFFpZaquMb1yL-trSNgNWXOuRPsrVeF2vzkUg2yH_psrY-XnpSZuNNTme1lNqaZaMGZC-Cv8YhmXxP87MowUoopg1dygAiwKQLUrLzWDcoC9eTHlHAmSXxFVh1XQctL5ZaLKDmRs8E-Lz32SU8TjRkrESLDon0Qt3ssXri-PJU5F2W52MAI649QxM0yj8WMgQPDwsyGh9cgphH4AjADN8amIXes1D1AUfOfkUi094FW7aumuZ0mTc6v_pAo9L-CRSjlUFYaSIZa0phAHO7ca7Dym5e-zS73zWuPgjKXYSkz__KPA2GCSxZLp__imfEtoITAKUHkdLLAfC3IrvB4RT25tsqYqsz8tLpJKeMNa2djnBOzAx3w45z5CCXy5oBUNbLiMzn", "results": [{"business_status": "OPERATIONAL", "formatted_address": "Via Guizza Conselvana, 381, 35125 Padova PD", "geometry": {"location": {"lat": 45.3629343, "lng": 11.8711259}, "viewport": {"northeast": {"lat": 45.36429272989272, "lng": 11.87238612989272}, "southwest": {"lat": 45.36159307010728, "lng": 11.86968647010728}}}, "icon": "https://maps.gstatic.com/mapfiles/place_api/icons/v1/png_71/restaurant-71.png", "icon_background_color": "#FF9E67", "icon_mask_base_uri": "https://maps.gstatic.com/mapfiles/place_api/icons/v2/restaurant_pinlet", "name": "Ristorante Da Attilio", "opening_hours": {"open_now": true}, "photos": [{"height": 2252, "html_attributions": ["<a href=\"https://maps.google.com/maps/contrib/101751304525453451388\">Mauro Costa</a>"], "photo_reference": "AUGGfZndfoKgIK4hszswOlCnHjykGIAQ0HvpnEd2S7mFxMRLD8JqydAohxMg9lIqm0qBafH3Jvc-N-1pcUBSpGQHjeJ1A3_yOqxGTu4DgyK8If9HDqGSc1fcVAjnx6Dxo2xy1UMx7P1Ez-dE3Bjxj3FAunycijP0k4lX6DaE2yDlIuhkBMBu", "width": 4000}], "place_id": "ChIJPTRpx3jbfkcRx5Gv5a-P484", "plus_code": {"compound_code": "9V7C+5F Padua, Province of Padua", "global_code": "8FQH9V7C+5F"}, "price_level": 2, "rating": 4.5, "reference": "ChIJPTRpx3jbfkcRx5Gv5a-P484", "types": ["restaurant", "food", "point_of_interest", "establishment"], "user_ratings_total": 458}, {"business_status": "OPERATIONAL", "formatted_address": "Via Chiesanuova, 131, 35139 Padova PD", "geometry": {"location": {"lat": 45.413494, "lng": 11.8371232}, "viewport": {"northeast": {"lat": 45.41479697989272, "lng": 11.83853092989272}, "southwest": {"lat": 45.41209732010728, "lng": 11.83583127010728}}}, "icon": "https://maps.gstatic.com/mapfiles/place_api/icons/v1/png_71/restaurant-71.png", "icon_background_color": "#FF9E67", "icon_mask_base_uri": "https://maps.gstatic.com/mapfiles/place_api/icons/v2/restaurant_pinlet", "name": "Strada Facendo a Padova - Ristorante etico - Cibo, Arte e Incontri", "opening_hours": {"open_now": true}, "photos": [{"height": 2988, "html_attributions": ["<a href=\"https://maps.google.com/maps/contrib/116391937871953145587\">Paolo Zovato</a>"], "photo_reference": "AUGGfZmGYqunGBJwENDNOv6pZuXUQzK5ulTumN_NSiGHh1j0vk097SBAYGXkkc_eVvRuL8_GWrhm_7-nC1ILUHdYvAfYGLBE8V_rO3vOXInM7Abdc_S2lBkRvTwGKpzT7lqwbCRqOOyXNXYscwN3ffe5gx24r8M1rH-Cv3ScfQbbBCGsOsn7", "width": 5312}], "place_id": "ChIJeeU78IjZfkcReoht8Oi1dQs", "plus_code": {"compound_code": "CR7P+9V Padua, Province of Padua", "global_code": "8FQHCR7P+9V"}, "price_level": 2, "rating": 4.5, "reference": "ChIJeeU78IjZfkcReoht8Oi1dQs", "types": ["restaurant", "food", "point_of_interest", "establishment"], "user_ratings_total": 581}, {"business_status": "OPERATIONAL", "formatted_address": "Via Bartolomeo Cristofori, 12a, 35137 Padova PD", "geometry": {"location": {"lat": 45.4127446, "lng": 11.8711627}, "viewport": {"northeast": {"lat": 45.41409692989272, "lng": 11.87251407989272}, "southwest": {"lat": 45.41139727010728, "lng": 11.86981442010728}}}, "icon": "https://maps.gstatic.com/mapfiles/place_api/icons/v1/png_71/restaurant-71.png", "icon_background_color": "#FF9E67", "icon_mask_base_uri": "https://maps.gstatic.com/mapfiles/place_api/icons/v2/restaurant_pinlet", "name": "A Banda Del Buso", "opening_hours": {"open_now": true}, "photos": [{"height": 3840, "html_attributions": ["<a href=\"https://maps.google.com/maps/contrib/104360599246311016519\">Athos Lerpini</a>"], "photo_reference": "AUGGfZmWYlpf5h1Qq3IlJXRwKDHM9q3DoCnmcjUoIL4j1QsqtHJWGOcS1PWsfoJZ7U2DCQL6hyFkA_QGQvdFqK446O90jazQcX4IhapcG8lhODu8WxRyXUgNbyN4lrtqVrRj66aCO2CWGLdtkW4pohL5Cby0d0zPH0U5Zd0etTa5ZU_T87Q", "width": 5120}], "place_id": "ChIJn0ipN6fbfkcRANpZ-fvlgl0", "plus_code": {"compound_code": "CV7C+3F Padua, Province of Padua", "global_code": "8FQHCV7C+3F"}, "price_level": 2, "rating": 4.5, "reference": "ChIJn0ipN6fbfkcRANpZ-fvlgl0", "types": ["restaurant", "food", "point_of_interest", "establishment"], "user_ratings_total": 1560}, {"business_status": "OPERATIONAL", "formatted_address": "Via Giosu\u00e8 Carducci, 2/B, 35123 Padova PD", "geometry": {"location": {"lat": 45.3970569, "lng": 11.8754157}, "viewport": {"northeast": {"lat": 45.39837002989272, "lng": 11.87688182989272}, "southwest": {"lat": 45.39567037010728, "lng": 11.87418217010728}}}, "icon": "https://maps.gstatic.com/mapfiles/place_api/icons/v1/png_71/restaurant-71.png", "icon_background_color": "#FF9E67", "icon_mask_base_uri": "https://maps.gstatic.com/mapfiles/place_api/icons/v2/restaurant_pinlet", "name": "Terrazza Carducci", "opening_hours": {"open_now": true}, "photos": [{"height": 4248, "html_attributions": ["<a href=\"https://maps.google.com/maps/contrib/117210816214821853277\">sylvie et Robert dhaussy</a>"], "photo_reference": "AUGGfZmClTfyFSrLwWuiV-oyfikKPH_D05CrQa48qAEkxDyxJzX8SbPxDBUeyRqk3-a41HtCU280qYj4zzPUGdgptQDkZeDhs819s47QdHeqIxtbPAwRAuqmi7aLLBCKCzX6IfY0qs9JymYWIxxthetoWClbW_TkwSSxMjgrxGksaWNYC8Z-", "width": 5664}], "place_id": "ChIJpThkkazbfkcR_ZAfff-TNO4", "plus_code": {"compound_code": "9VWG+R5 Padua, Province of Padua", "global_code": "8FQH9VWG+R5"}, "price_level": 2, "rating": 4.4, "reference": "ChIJpThkkazbfkcR_ZAfff-TNO4", "types": ["restaurant", "food", "point_of_interest", "establishment"], "user_ratings_total": 1000}, {"business_status": "OPERATIONAL", "formatted_address": "Via Aristide Gabelli, 2b, 35121 Padova PD", "geometry": {"location": {"lat": 45.4067381, "lng": 11.8838369}, "viewport": {"northeast": {"lat": 45.40830847989272, "lng": 11.88541662989272}, "southwest": {"lat": 45.40560882010727, "lng": 11.88271697010728}}}, "icon": "https://maps.gstatic.com/mapfiles/place_api/icons/v1/png_71/restaurant-71.png", "icon_background_color": "#FF9E67", "icon_mask_base_uri": "https://maps.gstatic.com/mapfiles/place_api/icons/v2/restaurant_pinlet", "name": "Osteria La Sofia", "opening_hours": {"open_now": true}, "photos": [{"height": 1800, "html_attributions": ["<a href=\"https://maps.google.com/maps/contrib/117778391631300857036\">Luca Feole</a>"], "photo_reference": "AUGGfZkC7XJ3V7Gvq6DBlZJkZCsbtqipKMUtmGvfbRTC2uZrPPGWgfc3l04Rr5RNP-GgRuuXCge-ys21MMorllfk8BI3jETYP5ulkHDMBGrhJUDhM3itQWRcj2NubJ92EGzpQdOjeapTTkFp5p_cc5HFEXv4t5xG4-Gwdg0zZC468wM6_Xkx", "width": 4000}], "place_id": "ChIJsyFieFfafkcRN_O0j_MdLPk", "plus_code": {"compound_code": "CV4M+MG Padua, Province of Padua", "global_code": "8FQHCV4M+MG"}, "price_level": 2, "rating": 4.3, "reference": "ChIJsyFieFfafkcRN_O0j_MdLPk", "types": ["restaurant", "food", "point_of_interest", "establishment"], "user_ratings_total": 484}, {"business_status": "OPERATIONAL", "formatted_address": "Str. del Santo, 75, 35010 Mejaniga PD", "geometry": {"location": {"lat": 45.4633878, "lng": 11.8945492}, "viewport": {"northeast": {"lat": 45.46466577989272, "lng": 11.89588637989272}, "southwest": {"lat": 45.46196612010728, "lng": 11.89318672010728}}}, "icon": "https://maps.gstatic.com/mapfiles/place_api/icons/v1/png_71/restaurant-71.png", "icon_background_color": "#FF9E67", "icon_mask_base_uri": "https://maps.gstatic.com/mapfiles/place_api/icons/v2/restaurant_pinlet", "name": "Ristorante Griglieria Pizzeria Hotel Antico Guerriero", "opening_hours": {"open_now": true}, "photos": [{"height": 3024, "html_attributions": ["<a href=\"https://maps.google.com/maps/contrib/110899400635322175552\">Ristorante Pizzeria Antico Guerriero</a>"], "photo_reference": "AUGGfZnznl5ef5aAbhGio2pwIC1-CfIn3SEiFitid-acmVzxzxH30mgoRJthSJjd8KyS130ab6hE31PtJuIRDAfGRZV1kLBKitXLffLaJBl4ht2j2DPFC4VG7gmE9kyOpP6NBu0Pa2QeuziKouzdPchDiKKTdiW3pZf2iGhPoXldJOkIQBiP", "width": 4032}], "place_id": "ChIJpW5wYu_QfkcRn9XltKPMj1w", "plus_code": {"compound_code": "FV7V+9R Mejaniga, Province of Padua", "global_code": "8FQHFV7V+9R"}, "price_level": 2, "rating": 3.9, "reference": "ChIJpW5wYu_QfkcRn9XltKPMj1w", "types": ["restaurant", "food", "point_of_interest", "establishment"], "user_ratings_total": 641}, {"business_status": "OPERATIONAL", "formatted_address": "Via Stefano Breda, 3, 35139 Padova PD", "geometry": {"location": {"lat": 45.4080117, "lng": 11.8754582}, "viewport": {"northeast": {"lat": 45.40935272989272, "lng": 11.87681772989272}, "southwest": {"lat": 45.40665307010728, "lng": 11.87411807010728}}}, "icon": "https://maps.gstatic.com/mapfiles/place_api/icons/v1/png_71/restaurant-71.png", "icon_background_color": "#FF9E67", "icon_mask_base_uri": "https://maps.gstatic.com/mapfiles/place_api/icons/v2/restaurant_pinlet", "name": "Osteria Al Peronio", "opening_hours": {"open_now": true}, "photos": [{"height": 1960, "html_attributions": ["<a href=\"https://maps.google.com/maps/contrib/101182775793784174810\">\u0414\u043c\u0438\u0442\u0440\u0438\u0439 \u0414\u043e\u0431\u0440\u0438\u043d</a>"], "photo_reference": "AUGGfZlwgLVS6SRAYTN7Ov-T9Nt70djYhSPPmugEVTC5jM7pQgT7cWmwGQr8k0ZZNvyHRt8Qutxu4ihnwtr3HgSnNDJoNB1r16Zl0q9GVNs5_JjuSCZ0U-_H-kxfTCv6EKWWffgnqS5cg9wv2XaQIgyVl7mfszighV2shlEHAa8cWD_eAtID", "width": 4032}], "place_id": "ChIJLUDgA1DafkcR-dtY0yPNtyA", "plus_code": {"compound_code": "CV5G+65 Padua, Province of Padua", "global_code": "8FQHCV5G+65"}, "price_level": 2, "rating": 4.3, "reference": "ChIJLUDgA1DafkcR-dtY0yPNtyA", "types": ["restaurant", "food", "point_of_interest", "establishment"], "user_ratings_total": 435}, {"business_status": "OPERATIONAL", "formatted_address": "Via Argine Dx Piovego, 20, 35027 Noventana PD", "geometry": {"location": {"lat": 45.4069051, "lng": 11.9466933}, "viewport": {"northeast": {"lat": 45.40822072989273, "lng": 11.94803637989272}, "southwest": {"lat": 45.40552107010728, "lng": 11.94533672010728}}}, "icon": "https://maps.gstatic.com/mapfiles/place_api/icons/v1/png_71/restaurant-71.png", "icon_background_color": "#FF9E67", "icon_mask_base_uri": "https://maps.gstatic.com/mapfiles/place_api/icons/v2/restaurant_pinlet", "name": "Ristorante CA' NOVENA", "opening_hours": {"open_now": true}, "photos": [{"height": 4160, "html_attributions": ["<a href=\"https://maps.google.com/maps/contrib/113876475624580216623\">Mirca Torresin</a>"], "photo_reference": "AUGGfZkdZ3d_u-c0v5Av4ZMEPsWig3o86LKacla-lbBdRe3PY84aFKQiRGJzXug648OM1lfm6nEKA5P6qXjFY2jdcTGwY1xJpmU3HIdepubN7mp3n7Hk8VEbBV0iK36pMPDliutsqgbGcZEHhhf6izpUTZ9jpzsAzA0XX_JTyWXhkiB2_afk", "width": 3120}], "place_id": "ChIJ42w6oiTFfkcR29FnNZ0Qu3w", "plus_code": {"compound_code": "CW4W+QM Noventana, Province of Padua", "global_code": "8FQHCW4W+QM"}, "price_level": 2, "rating": 4.3, "reference": "ChIJ42w6oiTFfkcR29FnNZ0Qu3w", "types": ["restaurant", "food", "point_of_interest", "establishment"], "user_ratings_total": 166}, {"business_status": "OPERATIONAL", "formatted_address": "Via Santa Sofia, 1, 35121 Padova PD", "geometry": {"location": {"lat": 45.40509720000001, "lng": 11.8813155}, "viewport": {"northeast": {"lat": 45.40646002989273, "lng": 11.88265347989272}, "southwest": {"lat": 45.40376037010729, "lng": 11.87995382010728}}}, "icon": "https://maps.gstatic.com/mapfiles/place_api/icons/v1/png_71/restaurant-71.png", "icon_background_color": "#FF9E67", "icon_mask_base_uri": "https://maps.gstatic.com/mapfiles/place_api/icons/v2/restaurant_pinlet", "name": "Osteria Nane della Giulia", "opening_hours": {"open_now": true}, "photos": [{"height": 2608, "html_attributions": ["<a href=\"https://maps.google.com/maps/contrib/108405359718135036038\">Davide Frigerio</a>"], "photo_reference": "AUGGfZlAhMRcdf9QtiwcVlpMSNoRdkSLgy_BZxi9Dmk9KXuQZ5q8aks1b7v5Wfl-TKypwpUVUABoTe2i57gmhXGoSpazuGmlzxvLjG9gjV7MDlxHrQjzx1VPFk0UTMjJiaSv2EH4S0KnDHYPdXysb0Ktp_XfMIlPTk26fZ0XVVTq2TCweMLT", "width": 4624}], "place_id": "ChIJL7_PE1fafkcRgSh4yy4s7hY", "plus_code": {"compound_code": "CV4J+2G Padua, Province of Padua", "global_code": "8FQHCV4J+2G"}, "price_level": 2, "rating": 4.3, "reference": "ChIJL7_PE1fafkcRgSh4yy4s7hY", "types": ["restaurant", "food", "point_of_interest", "establishment"], "user_ratings_total": 1514}, {"business_status": "OPERATIONAL", "formatted_address": "Via Po, 197, 35135 Padova PD", "geometry": {"location": {"lat": 45.4539673, "lng": 11.8570263}, "viewport": {"northeast": {"lat": 45.45549287989272, "lng": 11.85833842989272}, "southwest": {"lat": 45.45279322010727, "lng": 11.85563877010728}}}, "icon": "https://maps.gstatic.com/mapfiles/place_api/icons/v1/png_71/restaurant-71.png", "icon_background_color": "#FF9E67", "icon_mask_base_uri": "https://maps.gstatic.com/mapfiles/place_api/icons/v2/restaurant_pinlet", "name": "Ristorante Aquattro Padova", "opening_hours": {"open_now": true}, "photos": [{"height": 1666, "html_attributions": ["<a href=\"https://maps.google.com/maps/contrib/109829537051132719727\">A Google User</a>"], "photo_reference": "AUGGfZmBRN6Y2VQoLYbKwNwSOsP30aKN5vV2Qk_ltgDYEMI7ejkUbGguQAalFgAtSznI8BS-BTQq6KS_1dm1xGpdUWWbUo72oYi3-GFAM16Ysv-yj2JQSBtVYt7UjMwiO39neyEq5TULTdhaAhxbPVOf1t055rsbJs3W-BFg3SJ2sE0oBuQO", "width": 2500}], "place_id": "ChIJM40mU7LQfkcRPGT8E6UbtrI", "plus_code": {"compound_code": "FV34+HR Padua, Province of Padua", "global_code": "8FQHFV34+HR"}, "rating": 4.2, "reference": "ChIJM40mU7LQfkcRPGT8E6UbtrI", "types": ["restaurant", "food", "point_of_interest", "establishment"], "user_ratings_total": 89}, {"business_status": "OPERATIONAL", "formatted_address": "Via Fornace, 26, 35010 Limena PD", "geometry": {"location": {"lat": 45.4721692, "lng": 11.8382169}, "viewport": {"northeast": {"lat": 45.47348772989272, "lng": 11.83961292989272}, "southwest": {"lat": 45.47078807010728, "lng": 11.83691327010728}}}, "icon": "https://maps.gstatic.com/mapfiles/place_api/icons/v1/png_71/restaurant-71.png", "icon_background_color": "#FF9E67", "icon_mask_base_uri": "https://maps.gstatic.com/mapfiles/place_api/icons/v2/restaurant_pinlet", "name": "Ristorante Tombolato", "opening_hours": {"open_now": true}, "photos": [{"height": 1080, "html_attributions": ["<a href=\"https://maps.google.com/maps/contrib/104705163903168534529\">Loris Pavan</a>"], "photo_reference": "AUGGfZkVC-OFSmhq5w0_bdqDQCPOPXDUwiVwIEsV3MFujpbolAmUMEICW7vd-F19nPBAAt7m_Ib-Cs1KGOeHqQdtGowCvNfhzp2xb1RDpQ1mSsQIhPLWAnjKT6EvCMUh60vR_v0tPuQKPp0AEZvoF959k0WWrZEkSly4EZboriJpPG7FYYkW", "width": 1920}], "place_id": "ChIJAQtKXRbXfkcR7Rqeuk3FXhc", "plus_code": {"compound_code": "FRCQ+V7 Limena, Province of Padua", "global_code": "8FQHFRCQ+V7"}, "price_level": 2, "rating": 4, "reference": "ChIJAQtKXRbXfkcR7Rqeuk3FXhc", "types": ["restaurant", "food", "point_of_interest", "establishment"], "user_ratings_total": 844}, {"business_status": "OPERATIONAL", "formatted_address": "Via Valerio Flacco, 2, 35031 Abano Terme PD", "geometry": {"location": {"lat": 45.3536934, "lng": 11.7844733}, "viewport": {"northeast": {"lat": 45.35509987989273, "lng": 11.78597567989272}, "southwest": {"lat": 45.35240022010728, "lng": 11.78327602010728}}}, "icon": "https://maps.gstatic.com/mapfiles/place_api/icons/v1/png_71/restaurant-71.png", "icon_background_color": "#FF9E67", "icon_mask_base_uri": "https://maps.gstatic.com/mapfiles/place_api/icons/v2/restaurant_pinlet", "name": "Ristorante Pizzeria Sotto Sotto", "opening_hours": {"open_now": true}, "photos": [{"height": 2988, "html_attributions": ["<a href=\"https://maps.google.com/maps/contrib/113914799840331202657\">Sveta Varzar</a>"], "photo_reference": "AUGGfZkKjXMh-E3n0qTBVge641LwEXP-Ch16wJBGZAxMpqghNmjwovsSF0fCX9iuV7n0zGYz31XvdJx8dw448gSpS_01rf-x-Xj_M_lWj3XF4OtErEBehH75P_DUFGJN3S-AbZkQGeFWL3xsCkNi_xZwzPSz8ZxUZ1JtDtV66yf0VFDkOp5d", "width": 5312}], "place_id": "ChIJMStIPpTefkcR6vzlMHX-Kuc", "plus_code": {"compound_code": "9Q3M+FQ Abano Terme, Province of Padua", "global_code": "8FQH9Q3M+FQ"}, "price_level": 2, "rating": 4, "reference": "ChIJMStIPpTefkcR6vzlMHX-Kuc", "types": ["restaurant", "food", "point_of_interest", "establishment"], "user_ratings_total": 1116}, {"business_status": "OPERATIONAL", "formatted_address": "Via del Portello, 93, 35129 Padova PD", "geometry": {"location": {"lat": 45.4091666, "lng": 11.8923082}, "viewport": {"northeast": {"lat": 45.41049332989271, "lng": 11.89379607989272}, "southwest": {"lat": 45.40779367010727, "lng": 11.89109642010728}}}, "icon": "https://maps.gstatic.com/mapfiles/place_api/icons/v1/png_71/restaurant-71.png", "icon_background_color": "#FF9E67", "icon_mask_base_uri": "https://maps.gstatic.com/mapfiles/place_api/icons/v2/restaurant_pinlet", "name": "AL PORTEO Pizzeria/Ristorante", "opening_hours": {"open_now": true}, "photos": [{"height": 3968, "html_attributions": ["<a href=\"https://maps.google.com/maps/contrib/101786347598132914900\">Giulio Giacometti</a>"], "photo_reference": "AUGGfZkoy30-91XztU_U2A4SOeqeaigYJHZZpIC8NX_PzgvBAT-i5uJQmq_q9_14SoY8YJEm2Cb4GDZv09a7XIy9_HuwT1U4rUP8V-jU8nq3WJ3lH_9G-LvikYhyo-EW0lje-4OsXoRqZeIsvM8sCYaUYLqwpaDH-rLhkovSU4EAmgNbeQaG", "width": 2976}], "place_id": "ChIJP39wIffafkcR_HAseeSiBZ4", "plus_code": {"compound_code": "CV5R+MW Padua, Province of Padua", "global_code": "8FQHCV5R+MW"}, "price_level": 1, "rating": 4.4, "reference": "ChIJP39wIffafkcR_HAseeSiBZ4", "types": ["restaurant", "food", "point_of_interest", "establishment"], "user_ratings_total": 850}, {"business_status": "OPERATIONAL", "formatted_address": "Via Bosco Wollemborg, 19, 35100 Padova PD", "geometry": {"location": {"lat": 45.37267809999999, "lng": 11.8784511}, "viewport": {"northeast": {"lat": 45.37396317989273, "lng": 11.87980122989272}, "southwest": {"lat": 45.37126352010728, "lng": 11.87710157010728}}}, "icon": "https://maps.gstatic.com/mapfiles/place_api/icons/v1/png_71/restaurant-71.png", "icon_background_color": "#FF9E67", "icon_mask_base_uri": "https://maps.gstatic.com/mapfiles/place_api/icons/v2/restaurant_pinlet", "name": "Il Carro", "opening_hours": {"open_now": true}, "photos": [{"height": 2304, "html_attributions": ["<a href=\"https://maps.google.com/maps/contrib/117752798184899153163\">cip stefan</a>"], "photo_reference": "AUGGfZlvQ6lH9gPaWRimXG1WZSkQgSzTIJG8z6igrI0Grg8rJ8BX1TYE1sjVqmniVTuDnhDawH9rXUQTuWgihwRowQPzliUEAi5hTzMDV4MSrleL4meCSXXBs9Da4e7umM9gZFNvhEfwbqdznL8FExYKf93Zd-XnpWHvYBdTWpCFJa6vLaiA", "width": 4096}], "place_id": "ChIJVRdlLHfbfkcR0Itrg7bUo4k", "plus_code": {"compound_code": "9VFH+3C Padua, Province of Padua", "global_code": "8FQH9VFH+3C"}, "price_level": 2, "rating": 4.2, "reference": "ChIJVRdlLHfbfkcR0Itrg7bUo4k", "types": ["restaurant", "food", "point_of_interest", "establishment"], "user_ratings_total": 959}, {"business_status": "OPERATIONAL", "formatted_address": "Via Romea, 107/B, 35020 Legnaro PD", "geometry": {"location": {"lat": 45.34010199999999, "lng": 11.9728369}, "viewport": {"northeast": {"lat": 45.34146162989272, "lng": 11.97413507989272}, "southwest": {"lat": 45.33876197010728, "lng": 11.97143542010728}}}, "icon": "https://maps.gstatic.com/mapfiles/place_api/icons/v1/png_71/restaurant-71.png", "icon_background_color": "#FF9E67", "icon_mask_base_uri": "https://maps.gstatic.com/mapfiles/place_api/icons/v2/restaurant_pinlet", "name": "Osteria dal Nonno (Ristorante)", "opening_hours": {"open_now": true}, "photos": [{"height": 4608, "html_attributions": ["<a href=\"https://maps.google.com/maps/contrib/117139969665419505761\">Maurizio Matarese</a>"], "photo_reference": "AUGGfZmPPug__KmfUZ6Sj3Jot5-8OmC26R3DBObiMSysX1vf-JQPDbieRXHRz6Way9tB0UVTujfKRO7lgHvanSIuWVebnvxPKsDN16HBLS9M-vTm2nF7M7utoGNPlpz7QET1uP_S0OtlNWChucKaZHwp8tfv7YYaGe6JlHNDDcdIy0nPpe-s", "width": 3456}], "place_id": "ChIJ9c0txpHDfkcRP-WyUmxf8SQ", "plus_code": {"compound_code": "8XRF+24 Legnaro, Province of Padua", "global_code": "8FQH8XRF+24"}, "price_level": 2, "rating": 4.3, "reference": "ChIJ9c0txpHDfkcRP-WyUmxf8SQ", "types": ["restaurant", "food", "point_of_interest", "establishment"], "user_ratings_total": 1968}, {"business_status": "OPERATIONAL", "formatted_address": "Via Giuseppe Mazzini, 11, 35031 Abano Terme PD", "geometry": {"location": {"lat": 45.3572538, "lng": 11.7836247}, "viewport": {"northeast": {"lat": 45.35854307989272, "lng": 11.78516677989272}, "southwest": {"lat": 45.35584342010728, "lng": 11.78246712010728}}}, "icon": "https://maps.gstatic.com/mapfiles/place_api/icons/v1/png_71/restaurant-71.png", "icon_background_color": "#FF9E67", "icon_mask_base_uri": "https://maps.gstatic.com/mapfiles/place_api/icons/v2/restaurant_pinlet", "name": "Ristorante Aquolina by AQUA", "opening_hours": {"open_now": true}, "photos": [{"height": 6000, "html_attributions": ["<a href=\"https://maps.google.com/maps/contrib/116230879551369737941\">Omar Merlin</a>"], "photo_reference": "AUGGfZlw1NsYK5ktlF2ZkzpAC1w8G5cfk6S88ebhx9RhkgAQdkZP8H_z1F5Gg97r8vYsaR6sMQo3IRM9uFHB_CljhkUl3chj-EGEfD53voNhk20yKSI9TV-eysWvgs65tObrW1FioIsn7VcYeuslc8KrdE06_ZEMsRlT2sNYqrgOhMsaO0fL", "width": 8000}], "place_id": "ChIJs1lxhJ3ffkcRtnlFGfJI7G0", "plus_code": {"compound_code": "9Q4M+WC Abano Terme, Province of Padua", "global_code": "8FQH9Q4M+WC"}, "price_level": 2, "rating": 4.7, "reference": "ChIJs1lxhJ3ffkcRtnlFGfJI7G0", "types": ["restaurant", "food", "point_of_interest", "establishment"], "user_ratings_total": 471}, {"business_status": "OPERATIONAL", "formatted_address": "Via Marsilio da Padova, 11, 35139 Padova PD", "geometry": {"location": {"lat": 45.4081502, "lng": 11.8760894}, "viewport": {"northeast": {"lat": 45.40950187989272, "lng": 11.87742652989272}, "southwest": {"lat": 45.40680222010728, "lng": 11.87472687010728}}}, "icon": "https://maps.gstatic.com/mapfiles/place_api/icons/v1/png_71/restaurant-71.png", "icon_background_color": "#FF9E67", "icon_mask_base_uri": "https://maps.gstatic.com/mapfiles/place_api/icons/v2/restaurant_pinlet", "name": "Ristorante Isola di Caprera", "opening_hours": {"open_now": true}, "photos": [{"height": 1200, "html_attributions": ["<a href=\"https://maps.google.com/maps/contrib/114368491516277087408\">Roberto Cenghiaro</a>"], "photo_reference": "AUGGfZkOWfO55xTwFbmNtmsM_1ZrMJlBIvq_MhhonnBkzzF_lVdCpiJGsKpalNivZVErx0FN_DcxXpiUI69NQsgHtdrFOq9b8LoONkwEAMsyQGtm7VESFew6WyFgiTHT2FmDtBDmDe1yrzTB7VBZCEtiplVf79F46IaHrok-7aa_EJUyWVAe", "width": 1599}], "place_id": "ChIJnZHvp1rafkcRbZ3xQigVz54", "plus_code": {"compound_code": "CV5G+7C Padua, Province of Padua", "global_code": "8FQHCV5G+7C"}, "price_level": 2, "rating": 4.1, "reference": "ChIJnZHvp1rafkcRbZ3xQigVz54", "types": ["restaurant", "food", "point_of_interest", "establishment"], "user_ratings_total": 700}, {"business_status": "OPERATIONAL", "formatted_address": "Via Ronchi, 19, 35020 Legnaro PD", "geometry": {"location": {"lat": 45.3540992, "lng": 11.9767313}, "viewport": {"northeast": {"lat": 45.35541322989272, "lng": 11.97821657989272}, "southwest": {"lat": 45.35271357010728, "lng": 11.97551692010728}}}, "icon": "https://maps.gstatic.com/mapfiles/place_api/icons/v1/png_71/restaurant-71.png", "icon_background_color": "#FF9E67", "icon_mask_base_uri": "https://maps.gstatic.com/mapfiles/place_api/icons/v2/restaurant_pinlet", "name": "Trattoria Ristorante Savio Ivo", "opening_hours": {"open_now": true}, "photos": [{"height": 3024, "html_attributions": ["<a href=\"https://maps.google.com/maps/contrib/114365968023157743762\">Gianni</a>"], "photo_reference": "AUGGfZlZMxvyzkFKh43l7XKzc2kGqDTHrec6VMXwJoNDnhqOK9xbd2dRHi0_-DJZ-wIaPLRVnfvfAWF1vV1tqXovrx6aIOrLrx2ikn7atXokOgT43S6Lf_Lbl64--xYVf6ZUcVhGVrniW57KSPlxZ-UY4rvMLfLIu4hCRWs4EmYyj8txYigF", "width": 3024}], "place_id": "ChIJuY_uOXfEfkcRuh4Jwjzkx4E", "plus_code": {"compound_code": "9X3G+JM Legnaro, Province of Padua", "global_code": "8FQH9X3G+JM"}, "price_level": 2, "rating": 4.5, "reference": "ChIJuY_uOXfEfkcRuh4Jwjzkx4E", "types": ["restaurant", "food", "point_of_interest", "establishment"], "user_ratings_total": 1748}, {"business_status": "OPERATIONAL", "formatted_address": "Via Romana, 5, 35031 Abano Terme PD", "geometry": {"location": {"lat": 45.3574218, "lng": 11.8109321}, "viewport": {"northeast": {"lat": 45.35889212989272, "lng": 11.81205207989272}, "southwest": {"lat": 45.35619247010728, "lng": 11.80935242010728}}}, "icon": "https://maps.gstatic.com/mapfiles/place_api/icons/v1/png_71/restaurant-71.png", "icon_background_color": "#FF9E67", "icon_mask_base_uri": "https://maps.gstatic.com/mapfiles/place_api/icons/v2/restaurant_pinlet", "name": "Ristorante Pizzeria Al Tabaco", "opening_hours": {"open_now": true}, "photos": [{"height": 1568, "html_attributions": ["<a href=\"https://maps.google.com/maps/contrib/105764405138742894418\">Giorgia Barbiero</a>"], "photo_reference": "AUGGfZl9fAWeVIS3PXsIPObrMfdTuT1Y7RhOJyJwbeUieX1sAh_7U1IHRNkj2pMvl91NsCQp-XqYyz9-jD_sR5THI0bGsY1KQFdked6dBjeYLvZAyyRNf71vW8tsVqONSqovKjGZjT02ZDg69jGjU7p6nZwy2tufgkKzISY55jivlJjtcfF6", "width": 2432}], "place_id": "ChIJ6T8Lo2HffkcRN0fOYPsDFW8", "plus_code": {"compound_code": "9R46+X9 Abano Terme, Province of Padua", "global_code": "8FQH9R46+X9"}, "price_level": 2, "rating": 4.3, "reference": "ChIJ6T8Lo2HffkcRN0fOYPsDFW8", "types": ["restaurant", "food", "point_of_interest", "establishment"], "user_ratings_total": 2755}, {"business_status": "OPERATIONAL", "formatted_address": "Str. del Santo, 144, 35010 Cadoneghe PD", "geometry": {"location": {"lat": 45.4824653, "lng": 11.8999265}, "viewport": {"northeast": {"lat": 45.48379712989272, "lng": 11.90145167989272}, "southwest": {"lat": 45.48109747010728, "lng": 11.89875202010728}}}, "icon": "https://maps.gstatic.com/mapfiles/place_api/icons/v1/png_71/restaurant-71.png", "icon_background_color": "#FF9E67", "icon_mask_base_uri": "https://maps.gstatic.com/mapfiles/place_api/icons/v2/restaurant_pinlet", "name": "Ristorante Ceccarello", "opening_hours": {"open_now": true}, "photos": [{"height": 3024, "html_attributions": ["<a href=\"https://maps.google.com/maps/contrib/103035320921712087132\">Silvano Ceccarello</a>"], "photo_reference": "AUGGfZkgj4nUMj-eegSLrUN1GiGxIFiZPKOASOlxzyLzyFF2OmqUeXGO1tB668-JJwVrDQmmBnwKh9ysQKjI2RRoBnXax4jp9rQqMUdflwoAW8_MG78bTXdIKMvKObLfivHy9-sqTpiExG3GrEznYgGiDMJaS7fM0xP54bLF6eGNI4YjO5ta", "width": 4032}], "place_id": "ChIJ4Y2UUhfRfkcR179vHPcoVQA", "plus_code": {"compound_code": "FVJX+XX Cadoneghe, Province of Padua", "global_code": "8FQHFVJX+XX"}, "price_level": 1, "rating": 4, "reference": "ChIJ4Y2UUhfRfkcR179vHPcoVQA", "types": ["restaurant", "food", "point_of_interest", "establishment"], "user_ratings_total": 465}], "status": "OK", "page_token": "AUGGfZmNmK-y042p1B1Y2i2us1QfapnWdRLQ2fgT737vwyg3YSut5YeejIxebA3HiyaIahQQkxOgTEfoyLmwU7-IqMmiRXVLO0L4wnnvpAN2S_Vgg1tyu-alcnSfF0WPtsxCYaJtW997AGLUbkamhj6NAox3rhTNuU-sa1ocbU_Wsg_wfTxVO2trVHMEqNQigchzww9miwpDtmEyjkJx5ijL5y_0Hihdo_6TIAoP3ulJa-gW0IyhJHpXID_S2rJPsgIw2oGfzTERISwK3Y114gzKcQedQ7SVqMm-rrgS7LGyhxY8xA3OTVT3RHCFg3K-4xL5PR1ZMMvhjiMTZpS9mFHdtGTlcyarCG53uFScAK-Vp3sFkdsfUqvgr59ragOUJJsLQijaMkB1sCVbMYZ94sJng6-kFbIRppTp0xewCZRySBLCJNKKBclWEW1sERpaP3M"}