{"html_attributions": [], "next_page_token": "AUGGfZnvkMp4BzQlx2AYI8kMpRyHIdLMjSguk51LpHy81vkNj5maN21DE7MgldEW881gGePJjITFrICUyRJN49pFxhiTnjtYajKA_qXw5prznSCKYT1dykwyY_rhFlBqpuxmU0G2yqGfr0H6YhdFYYU-Huc2g3jKxTaun6wWNYotyQ3FLmZXsh19lDIL5OYT8_hrXoSMaTs5_Rd9bJaHa-tHGfxHZ-_cfmi67D424ZkVTMpqSREvsHTLuMMUiXHb-xKl0jpVK1Y1cEkMknikutnKWafbwE8PvadpkWnxUNzVuNRt005L_SQ0brKoOrhWBvYVAhB1s7i_Qv15tQMyLIsuRHW-gQFv1x-05gKkVN2ovrpQJ60xksZlYgH3O8xjZV-_lMEnAef2fYsAYXAr9KMbW-Fscef-uZMdKD3U_paRGSnzwY86Q4B_U9oMTBy0a1d0_VKvF4aJ8yYl38U826x26JgMFi-rbJUVV5SpRHIIsvOvK8BtdzIW_wGXw3-zA5u2nZ-n3eE6eeZJTwxAnLp9rlpgsxG5qUju4Q3dth_LRLCZlKTsdzSjXCfENn4oIRYoZuOhE2p7j5nA3T4H5GPKHPR6GJvpJzhoDxs2PddS-jm9J-jSQHobdKn7uIbGrXmYIl07K8Ts5xBFgl9FC6AP", "results": [{"business_status": "OPERATIONAL", "formatted_address": "Via Guizza Conselvana, 381, 35125 Padova PD", "geometry": {"location": {"lat": 45.3629343, "lng": 11.8711259}, "viewport": {"northeast": {"lat": 45.36429272989272, "lng": 11.87238612989272}, "southwest": {"lat": 45.36159307010728, "lng": 11.86968647010728}}}, "icon": "https://maps.gstatic.com/mapfiles/place_api/icons/v1/png_71/restaurant-71.png", "icon_background_color": "#FF9E67", "icon_mask_base_uri": "https://maps.gstatic.com/mapfiles/place_api/icons/v2/restaurant_pinlet", "name": "Ristorante Da Attilio", "opening_hours": {"open_now": true}, "photos": [{"height": 2252, "html_attributions": ["<a href=\"https://maps.google.com/maps/contrib/101751304525453451388\">Mauro Costa</a>"], "photo_reference": "AUGGfZkoVbzfEK2gSqN8ZbnXFgGePeI-EclH_fprsgsdJIjYwNov_WyijG8by8h7Z2MLVztoWkt7plYN_wJe1fVo4oFZw1UWUBtd_JD8KWBzWQ2lcZTymz0rnNStsxmdPnLaMI4NrkMs433Qe_iPNIzQDLo_KF8DUsu8ynqhdATkcQm_hJ_X", "width": 4000}], "place_id": "ChIJPTRpx3jbfkcRx5Gv5a-P484", "plus_code": {"compound_code": "9V7C+5F Padua, Province of Padua", "global_code": "8FQH9V7C+5F"}, "price_level": 2, "rating": 4.5, "reference": "ChIJPTRpx3jbfkcRx5Gv5a-P484", "types": ["restaurant", "food", "point_of_interest", "establishment"], "user_ratings_total": 458}, {"business_status": "OPERATIONAL", "formatted_address": "Via Chiesanuova, 131, 35139 Padova PD", "geometry": {"location": {"lat": 45.413494, "lng": 11.8371232}, "viewport": {"northeast": {"lat": 45.41479697989272, "lng": 11.83853092989272}, "southwest": {"lat": 45.41209732010728, "lng": 11.83583127010728}}}, "icon": "https://maps.gstatic.com/mapfiles/place_api/icons/v1/png_71/restaurant-71.png", "icon_background_color": "#FF9E67", "icon_mask_base_uri": "https://maps.gstatic.com/mapfiles/place_api/icons/v2/restaurant_pinlet", "name": "Strada Facendo a Padova - Ristorante etico - Cibo, Arte e Incontri", "opening_hours": {"open_now": true}, "photos": [{"height": 2988, "html_attributions": ["<a href=\"https://maps.google.com/maps/contrib/116391937871953145587\">Paolo Zovato</a>"], "photo_reference": "AUGGfZmiP9tb4M0h8B-xYpK6bUHfn_I559kpa2QgWM4hfgyU19y_JaS57aHgvYQjnK0POmrZAPB7gixQM-7UN_1Jja_JZ6oMyVgX-EIOBip6IdMmzf76HcXts0LEZ8O2XbUD8RE7NpQCveo0usyrklBoIvBh0bKwMwRSdOQBDHcU4oNp4ACY", "width": 5312}], "place_id": "ChIJeeU78IjZfkcReoht8Oi1dQs", "plus_code": {"compound_code": "CR7P+9V Padua, Province of Padua", "global_code": "8FQHCR7P+9V"}, "price_level": 2, "rating": 4.5, "reference": "ChIJeeU78IjZfkcReoht8Oi1dQs", "types": ["restaurant", "food", "point_of_interest", "establishment"], "user_ratings_total": 581}, {"business_status": "OPERATIONAL", "formatted_address": "Via Bartolomeo Cristofori, 12a, 35137 Padova PD", "geometry": {"location": {"lat": 45.4127446, "lng": 11.8711627}, "viewport": {"northeast": {"lat": 45.41409692989272, "lng": 11.87251407989272}, "southwest": {"lat": 45.41139727010728, "lng": 11.86981442010728}}}, "icon": "https://maps.gstatic.com/mapfiles/place_api/icons/v1/png_71/restaurant-71.png", "icon_background_color": "#FF9E67", "icon_mask_base_uri": "https://maps.gstatic.com/mapfiles/place_api/icons/v2/restaurant_pinlet", "name": "A Banda Del Buso", "opening_hours": {"open_now": true}, "photos": [{"height": 3840, "html_attributions": ["<a href=\"https://maps.google.com/maps/contrib/104360599246311016519\">Athos Lerpini</a>"], "photo_reference": "AUGGfZlQ6WYSEWOA6EK0ROnDA02nBu5Xc67yTucXYBUMIkPnkCjlE_4kwBTDFZLgzISBnppw22zIMV95P-9GVLHDeYmt2IBYG30iWblWO08Zj1IssIjGd8rP9IhlckOauO2PrNet0HuwRbwArrNBGiC2djszDks2umanIWWnQTmSOnkpOrQ", "width": 5120}], "place_id": "ChIJn0ipN6fbfkcRANpZ-fvlgl0", "plus_code": {"compound_code": "CV7C+3F Padua, Province of Padua", "global_code": "8FQHCV7C+3F"}, "price_level": 2, "rating": 4.5, "reference": "ChIJn0ipN6fbfkcRANpZ-fvlgl0", "types": ["restaurant", "food", "point_of_interest", "establishment"], "user_ratings_total": 1560}, {"business_status": "OPERATIONAL", "formatted_address": "Via Giosu\u00e8 Carducci, 2/B, 35123 Padova PD", "geometry": {"location": {"lat": 45.3970569, "lng": 11.8754157}, "viewport": {"northeast": {"lat": 45.39837002989272, "lng": 11.87688182989272}, "southwest": {"lat": 45.39567037010728, "lng": 11.87418217010728}}}, "icon": "https://maps.gstatic.com/mapfiles/place_api/icons/v1/png_71/restaurant-71.png", "icon_background_color": "#FF9E67", "icon_mask_base_uri": "https://maps.gstatic.com/mapfiles/place_api/icons/v2/restaurant_pinlet", "name": "Terrazza Carducci", "opening_hours": {"open_now": true}, "photos": [{"height": 4248, "html_attributions": ["<a href=\"https://maps.google.com/maps/contrib/117210816214821853277\">sylvie et Robert dhaussy</a>"], "photo_reference": "AUGGfZmIsyavb64CWb1jZF7E_3eMHuEJbx5am3P97KBE6x5ja1q3Ba1ixz3CIdlnPhNT_GlfkhWoQf1OFmG4UYk2uOOZyrBNDmiP7IabKB9Gg7F4uq3huGLKRHBkdvam2b5go0Yrs9hJm_cS7jHp13wZMl2SQ_eHOoXc80HvmW_55NkNC1rQ", "width": 5664}], "place_id": "ChIJpThkkazbfkcR_ZAfff-TNO4", "plus_code": {"compound_code": "9VWG+R5 Padua, Province of Padua", "global_code": "8FQH9VWG+R5"}, "price_level": 2, "rating": 4.4, "reference": "ChIJpThkkazbfkcR_ZAfff-TNO4", "types": ["restaurant", "food", "point_of_interest", "establishment"], "user_ratings_total": 1000}, {"business_status": "OPERATIONAL", "formatted_address": "Via Aristide Gabelli, 2b, 35121 Padova PD", "geometry": {"location": {"lat": 45.4067381, "lng": 11.8838369}, "viewport": {"northeast": {"lat": 45.40830847989272, "lng": 11.88541662989272}, "southwest": {"lat": 45.40560882010727, "lng": 11.88271697010728}}}, "icon": "https://maps.gstatic.com/mapfiles/place_api/icons/v1/png_71/restaurant-71.png", "icon_background_color": "#FF9E67", "icon_mask_base_uri": "https://maps.gstatic.com/mapfiles/place_api/icons/v2/restaurant_pinlet", "name": "Osteria La Sofia", "opening_hours": {"open_now": true}, "photos": [{"height": 1800, "html_attributions": ["<a href=\"https://maps.google.com/maps/contrib/117778391631300857036\">Luca Feole</a>"], "photo_reference": "AUGGfZnnXZZYPCohcSvtKWDkEha5lfC589AzGyyBPwaqWgYgYkvXtSGHVLLB3tf-j-lOZ949Wi2_SNsLCXL7ho9d8EgbQQs2se0Bs3VDEvW5mqbSLaLo_J6QSlIi4RUBT4FxHr3lL9uq47bTpfyCb66tbvfv11dLCITciUSx2cpGfhwfsnyC", "width": 4000}], "place_id": "ChIJsyFieFfafkcRN_O0j_MdLPk", "plus_code": {"compound_code": "CV4M+MG Padua, Province of Padua", "global_code": "8FQHCV4M+MG"}, "price_level": 2, "rating": 4.3, "reference": "ChIJsyFieFfafkcRN_O0j_MdLPk", "types": ["restaurant", "food", "point_of_interest", "establishment"], "user_ratings_total": 484}, {"business_status": "OPERATIONAL", "formatted_address": "Str. del Santo, 75, 35010 Mejaniga PD", "geometry": {"location": {"lat": 45.4633878, "lng": 11.8945492}, "viewport": {"northeast": {"lat": 45.46466577989272, "lng": 11.89588637989272}, "southwest": {"lat": 45.46196612010728, "lng": 11.89318672010728}}}, "icon": "https://maps.gstatic.com/mapfiles/place_api/icons/v1/png_71/restaurant-71.png", "icon_background_color": "#FF9E67", "icon_mask_base_uri": "https://maps.gstatic.com/mapfiles/place_api/icons/v2/restaurant_pinlet", "name": "Ristorante Griglieria Pizzeria Hotel Antico Guerriero", "opening_hours": {"open_now": true}, "photos": [{"height": 3024, "html_attributions": ["<a href=\"https://maps.google.com/maps/contrib/110899400635322175552\">Ristorante Pizzeria Antico Guerriero</a>"], "photo_reference": "AUGGfZn5nK-MuZXnEZtjCVAOCA8B7ZUjNwx7nBTYngOt8QG1wH_GnC657BHRENSL32FCKx_l4NY4wVS43s6i3ywnkX7GBPXefMFP7qvKtfvFGtVSJi3rrC32AgidaxNG90HiBtJiZKKE40j1Pv8T0dId7FZ9kGE2q8hHXxKnaO1N2nsm7VU4", "width": 4032}], "place_id": "ChIJpW5wYu_QfkcRn9XltKPMj1w", "plus_code": {"compound_code": "FV7V+9R Mejaniga, Province of Padua", "global_code": "8FQHFV7V+9R"}, "price_level": 2, "rating": 3.9, "reference": "ChIJpW5wYu_QfkcRn9XltKPMj1w", "types": ["restaurant", "food", "point_of_interest", "establishment"], "user_ratings_total": 641}, {"business_status": "OPERATIONAL", "formatted_address": "Via Stefano Breda, 3, 35139 Padova PD", "geometry": {"location": {"lat": 45.4080117, "lng": 11.8754582}, "viewport": {"northeast": {"lat": 45.40935272989272, "lng": 11.87681772989272}, "southwest": {"lat": 45.40665307010728, "lng": 11.87411807010728}}}, "icon": "https://maps.gstatic.com/mapfiles/place_api/icons/v1/png_71/restaurant-71.png", "icon_background_color": "#FF9E67", "icon_mask_base_uri": "https://maps.gstatic.com/mapfiles/place_api/icons/v2/restaurant_pinlet", "name": "Osteria Al Peronio", "opening_hours": {"open_now": true}, "photos": [{"height": 1960, "html_attributions": ["<a href=\"https://maps.google.com/maps/contrib/101182775793784174810\">\u0414\u043c\u0438\u0442\u0440\u0438\u0439 \u0414\u043e\u0431\u0440\u0438\u043d</a>"], "photo_reference": "AUGGfZmMw4R8iHrOXsr4lvIdla_gyu2_KX3I-YibNBuKJC_LBRFxnMt4eL_TmBKwMzo3oCwmYS8d9GYPVd_4sjtXsdazIynLpYGY2ZEFcR7qCFmZP8xY2bDDPjJE8wgms9qCjA9JPy2AxekixYpDyH0FjZ4pvK4rK51PNjASzMsf49WwTJyB", "width": 4032}], "place_id": "ChIJLUDgA1DafkcR-dtY0yPNtyA", "plus_code": {"compound_code": "CV5G+65 Padua, Province of Padua", "global_code": "8FQHCV5G+65"}, "price_level": 2, "rating": 4.3, "reference": "ChIJLUDgA1DafkcR-dtY0yPNtyA", "types": ["restaurant", "food", "point_of_interest", "establishment"], "user_ratings_total": 435}, {"business_status": "OPERATIONAL", "formatted_address": "Via Argine Dx Piovego, 20, 35027 Noventana PD", "geometry": {"location": {"lat": 45.4069051, "lng": 11.9466933}, "viewport": {"northeast": {"lat": 45.40822072989273, "lng": 11.94803637989272}, "southwest": {"lat": 45.40552107010728, "lng": 11.94533672010728}}}, "icon": "https://maps.gstatic.com/mapfiles/place_api/icons/v1/png_71/restaurant-71.png", "icon_background_color": "#FF9E67", "icon_mask_base_uri": "https://maps.gstatic.com/mapfiles/place_api/icons/v2/restaurant_pinlet", "name": "Ristorante CA' NOVENA", "opening_hours": {"open_now": true}, "photos": [{"height": 4160, "html_attributions": ["<a href=\"https://maps.google.com/maps/contrib/113876475624580216623\">Mirca Torresin</a>"], "photo_reference": "AUGGfZk0qRfQmffm44wlFuC2-8O4N8b8dGeIh39v30cqHqEB_5B1qjKLPcnXfxDVOq9NSLQD76Pum6f_Cd_t4UkSkh2BrKugp6IUvwVEI0-PGWYaIEtcRcvm39-nzNhpaCTSr1YzwqQVOD2XbnTThNRE4VnQec0DAfahfzlOh0jsobNZDMOh", "width": 3120}], "place_id": "ChIJ42w6oiTFfkcR29FnNZ0Qu3w", "plus_code": {"compound_code": "CW4W+QM Noventana, Province of Padua", "global_code": "8FQHCW4W+QM"}, "price_level": 2, "rating": 4.3, "reference": "ChIJ42w6oiTFfkcR29FnNZ0Qu3w", "types": ["restaurant", "food", "point_of_interest", "establishment"], "user_ratings_total": 166}, {"business_status": "OPERATIONAL", "formatted_address": "Via Santa Sofia, 1, 35121 Padova PD", "geometry": {"location": {"lat": 45.40509720000001, "lng": 11.8813155}, "viewport": {"northeast": {"lat": 45.40646002989273, "lng": 11.88265347989272}, "southwest": {"lat": 45.40376037010729, "lng": 11.87995382010728}}}, "icon": "https://maps.gstatic.com/mapfiles/place_api/icons/v1/png_71/restaurant-71.png", "icon_background_color": "#FF9E67", "icon_mask_base_uri": "https://maps.gstatic.com/mapfiles/place_api/icons/v2/restaurant_pinlet", "name": "Osteria Nane della Giulia", "opening_hours": {"open_now": true}, "photos": [{"height": 2608, "html_attributions": ["<a href=\"https://maps.google.com/maps/contrib/108405359718135036038\">Davide Frigerio</a>"], "photo_reference": "AUGGfZkrZyhFWVPIsIMMVKjquib-FBBaXuA3clCmsSxJqZoyqqW11dDox6oBG_T228_rIfjOK9up8SrXWn2PdLwl3Lc39844Pn1PsawamNqE7ZHA8KbAsNbwg3016-treA_SetwsZ5OWjSGp9FewqxXM7RYY3k67djw2owLEcBAI9nNGXSKO", "width": 4624}], "place_id": "ChIJL7_PE1fafkcRgSh4yy4s7hY", "plus_code": {"compound_code": "CV4J+2G Padua, Province of Padua", "global_code": "8FQHCV4J+2G"}, "price_level": 2, "rating": 4.3, "reference": "ChIJL7_PE1fafkcRgSh4yy4s7hY", "types": ["restaurant", "food", "point_of_interest", "establishment"], "user_ratings_total": 1514}, {"business_status": "OPERATIONAL", "formatted_address": "Via Po, 197, 35135 Padova PD", "geometry": {"location": {"lat": 45.4539673, "lng": 11.8570263}, "viewport": {"northeast": {"lat": 45.45549287989272, "lng": 11.85833842989272}, "southwest": {"lat": 45.45279322010727, "lng": 11.85563877010728}}}, "icon": "https://maps.gstatic.com/mapfiles/place_api/icons/v1/png_71/restaurant-71.png", "icon_background_color": "#FF9E67", "icon_mask_base_uri": "https://maps.gstatic.com/mapfiles/place_api/icons/v2/restaurant_pinlet", "name": "Ristorante Aquattro Padova", "opening_hours": {"open_now": true}, "photos": [{"height": 1666, "html_attributions": ["<a href=\"https://maps.google.com/maps/contrib/109829537051132719727\">A Google User</a>"], "photo_reference": "AUGGfZmUZHi5agbE2g_6ExJGluzS8PQbaC2Thw8Jluzs6LxK5Jipu-eE46usD1ee-Iro9jXDKtlIlnIE8IenGhx1yy2c2ndN0Cgn9hqfNSxF9JeUXPjiLQo-yyFmneKkZ8GPo9I7_lGZna8zMkuawK8sJYec5iNdSvDhkiAlSVzk7fVani6l", "width": 2500}], "place_id": "ChIJM40mU7LQfkcRPGT8E6UbtrI", "plus_code": {"compound_code": "FV34+HR Padua, Province of Padua", "global_code": "8FQHFV34+HR"}, "rating": 4.2, "reference": "ChIJM40mU7LQfkcRPGT8E6UbtrI", "types": ["restaurant", "food", "point_of_interest", "establishment"], "user_ratings_total": 89}, {"business_status": "OPERATIONAL", "formatted_address": "Via Fornace, 26, 35010 Limena PD", "geometry": {"location": {"lat": 45.4721692, "lng": 11.8382169}, "viewport": {"northeast": {"lat": 45.47348772989272, "lng": 11.83961292989272}, "southwest": {"lat": 45.47078807010728, "lng": 11.83691327010728}}}, "icon": "https://maps.gstatic.com/mapfiles/place_api/icons/v1/png_71/restaurant-71.png", "icon_background_color": "#FF9E67", "icon_mask_base_uri": "https://maps.gstatic.com/mapfiles/place_api/icons/v2/restaurant_pinlet", "name": "Ristorante Tombolato", "opening_hours": {"open_now": true}, "photos": [{"height": 1080, "html_attributions": ["<a href=\"https://maps.google.com/maps/contrib/104705163903168534529\">Loris Pavan</a>"], "photo_reference": "AUGGfZmazGawyYZMJ3hKb2uAFu1dME_UPg4rjUfDdTgsrbb77xcGEjfnSWq06vHAITAolQHWq-LV6Ub4DXtji71upcHeTF3iwHjXyoiwUdH2dWCvyWzb98Dpu4i0x9gy35xUUh6toRr_6q7Y4NkVGgDkLGvTr1ohROfi0OYbvyq7d555LCpB", "width": 1920}], "place_id": "ChIJAQtKXRbXfkcR7Rqeuk3FXhc", "plus_code": {"compound_code": "FRCQ+V7 Limena, Province of Padua", "global_code": "8FQHFRCQ+V7"}, "price_level": 2, "rating": 4, "reference": "ChIJAQtKXRbXfkcR7Rqeuk3FXhc", "types": ["restaurant", "food", "point_of_interest", "establishment"], "user_ratings_total": 844}, {"business_status": "OPERATIONAL", "formatted_address": "Via Valerio Flacco, 2, 35031 Abano Terme PD", "geometry": {"location": {"lat": 45.3536934, "lng": 11.7844733}, "viewport": {"northeast": {"lat": 45.35509987989273, "lng": 11.78597567989272}, "southwest": {"lat": 45.35240022010728, "lng": 11.78327602010728}}}, "icon": "https://maps.gstatic.com/mapfiles/place_api/icons/v1/png_71/restaurant-71.png", "icon_background_color": "#FF9E67", "icon_mask_base_uri": "https://maps.gstatic.com/mapfiles/place_api/icons/v2/restaurant_pinlet", "name": "Ristorante Pizzeria Sotto Sotto", "opening_hours": {"open_now": true}, "photos": [{"height": 2988, "html_attributions": ["<a href=\"https://maps.google.com/maps/contrib/113914799840331202657\">Sveta Varzar</a>"], "photo_reference": "AUGGfZkdb4Mw1ZSdatad-oUvoOlapGCbhM7QuKj-r6RZoEAg-MhkzluQVJxq7h1fkq1225NNtFJUN1ymQw45XbHMF-x0IYPAmCqBhQD1gQyIb9w4N__ypvSxAEsmJ-PNPMu0ajBuDBegb6-sUnexR2YJy5_Dfk6qaQsEhu6dmFo9y7iaj81S", "width": 5312}], "place_id": "ChIJMStIPpTefkcR6vzlMHX-Kuc", "plus_code": {"compound_code": "9Q3M+FQ Abano Terme, Province of Padua", "global_code": "8FQH9Q3M+FQ"}, "price_level": 2, "rating": 4, "reference": "ChIJMStIPpTefkcR6vzlMHX-Kuc", "types": ["restaurant", "food", "point_of_interest", "establishment"], "user_ratings_total": 1116}, {"business_status": "OPERATIONAL", "formatted_address": "Via del Portello, 93, 35129 Padova PD", "geometry": {"location": {"lat": 45.4091666, "lng": 11.8923082}, "viewport": {"northeast": {"lat": 45.41049332989271, "lng": 11.89379607989272}, "southwest": {"lat": 45.40779367010727, "lng": 11.89109642010728}}}, "icon": "https://maps.gstatic.com/mapfiles/place_api/icons/v1/png_71/restaurant-71.png", "icon_background_color": "#FF9E67", "icon_mask_base_uri": "https://maps.gstatic.com/mapfiles/place_api/icons/v2/restaurant_pinlet", "name": "AL PORTEO Pizzeria/Ristorante", "opening_hours": {"open_now": true}, "photos": [{"height": 3968, "html_attributions": ["<a href=\"https://maps.google.com/maps/contrib/101786347598132914900\">Giulio Giacometti</a>"], "photo_reference": "AUGGfZnShkzpr79DuL8ACF6uzLORLm9eMgbO94X6tTGu9AiNdomHys69gGkgpF5XsJRbRXQcCp8J4C3BI6ouQ2F2GfclrzOgJRUd53XP6tJqJH1Dl3bdIWIbAKCuxSovG5IK2NJGteqYqeV9FW2nrJqiYHDfB9xWjbnnA53A7cZXB2yqrOg3", "width": 2976}], "place_id": "ChIJP39wIffafkcR_HAseeSiBZ4", "plus_code": {"compound_code": "CV5R+MW Padua, Province of Padua", "global_code": "8FQHCV5R+MW"}, "price_level": 1, "rating": 4.4, "reference": "ChIJP39wIffafkcR_HAseeSiBZ4", "types": ["restaurant", "food", "point_of_interest", "establishment"], "user_ratings_total": 850}, {"business_status": "OPERATIONAL", "formatted_address": "Via Bosco Wollemborg, 19, 35100 Padova PD", "geometry": {"location": {"lat": 45.37267809999999, "lng": 11.8784511}, "viewport": {"northeast": {"lat": 45.37396317989273, "lng": 11.87980122989272}, "southwest": {"lat": 45.37126352010728, "lng": 11.87710157010728}}}, "icon": "https://maps.gstatic.com/mapfiles/place_api/icons/v1/png_71/restaurant-71.png", "icon_background_color": "#FF9E67", "icon_mask_base_uri": "https://maps.gstatic.com/mapfiles/place_api/icons/v2/restaurant_pinlet", "name": "Il Carro", "opening_hours": {"open_now": true}, "photos": [{"height": 2304, "html_attributions": ["<a href=\"https://maps.google.com/maps/contrib/117752798184899153163\">cip stefan</a>"], "photo_reference": "AUGGfZnzR5uEjEfQsU-fuR04daExb35brbHns38fPVAiIQDJGRgMN9fYGAeW1iPWqvVeyM2o2KvxTwvTyOJN9KkoTr-74KSo4pGPIWxbColEUWGYC0qBfrJEcDHLBi8-NrgDBOSKgpYJtdxNpkrO4s7ZEbPEIKSgIhPekMGrbqVe2jzVaVXq", "width": 4096}], "place_id": "ChIJVRdlLHfbfkcR0Itrg7bUo4k", "plus_code": {"compound_code": "9VFH+3C Padua, Province of Padua", "global_code": "8FQH9VFH+3C"}, "price_level": 2, "rating": 4.2, "reference": "ChIJVRdlLHfbfkcR0Itrg7bUo4k", "types": ["restaurant", "food", "point_of_interest", "establishment"], "user_ratings_total": 959}, {"business_status": "OPERATIONAL", "formatted_address": "Via Romea, 107/B, 35020 Legnaro PD", "geometry": {"location": {"lat": 45.34010199999999, "lng": 11.9728369}, "viewport": {"northeast": {"lat": 45.34146162989272, "lng": 11.97413507989272}, "southwest": {"lat": 45.33876197010728, "lng": 11.97143542010728}}}, "icon": "https://maps.gstatic.com/mapfiles/place_api/icons/v1/png_71/restaurant-71.png", "icon_background_color": "#FF9E67", "icon_mask_base_uri": "https://maps.gstatic.com/mapfiles/place_api/icons/v2/restaurant_pinlet", "name": "Osteria dal Nonno (Ristorante)", "opening_hours": {"open_now": true}, "photos": [{"height": 4608, "html_attributions": ["<a href=\"https://maps.google.com/maps/contrib/117139969665419505761\">Maurizio Matarese</a>"], "photo_reference": "AUGGfZm6twKB5MTwZFLgYMr1_ABOf7sVkVQSuQGs23b9atxnbHotAuJMyILOWCHiKq9BmzZiC4HCT8hTkL3rgy4wTJCeDixQkLynSOX8o9LeGRMp2bpy6XmcJxWHoHD7BXVHiqqc81rOGz7s_243wInKjEF-242y6I15pXE2ZagWlbszqGtE", "width": 3456}], "place_id": "ChIJ9c0txpHDfkcRP-WyUmxf8SQ", "plus_code": {"compound_code": "8XRF+24 Legnaro, Province of Padua", "global_code": "8FQH8XRF+24"}, "price_level": 2, "rating": 4.3, "reference": "ChIJ9c0txpHDfkcRP-WyUmxf8SQ", "types": ["restaurant", "food", "point_of_interest", "establishment"], "user_ratings_total": 1968}, {"business_status": "OPERATIONAL", "formatted_address": "Via Giuseppe Mazzini, 11, 35031 Abano Terme PD", "geometry": {"location": {"lat": 45.3572538, "lng": 11.7836247}, "viewport": {"northeast": {"lat": 45.35854307989272, "lng": 11.78516677989272}, "southwest": {"lat": 45.35584342010728, "lng": 11.78246712010728}}}, "icon": "https://maps.gstatic.com/mapfiles/place_api/icons/v1/png_71/restaurant-71.png", "icon_background_color": "#FF9E67", "icon_mask_base_uri": "https://maps.gstatic.com/mapfiles/place_api/icons/v2/restaurant_pinlet", "name": "Ristorante Aquolina by AQUA", "opening_hours": {"open_now": true}, "photos": [{"height": 6000, "html_attributions": ["<a href=\"https://maps.google.com/maps/contrib/116230879551369737941\">Omar Merlin</a>"], "photo_reference": "AUGGfZmjI7_LdmzRAinABkavkdy2qk729RR1lV9TBj7brofW_Zlt3sRMsU7lx8GhFP12ppuIyHoIsjpH993NFbhnHJBF9BDKbhR0GVCLBKnP6-3mWJRJa47I4bioiuZ0WouJxMeehtQG2HMEoI481RwoxvBtXmqFROJX9rothVVGgM9tn5n-", "width": 8000}], "place_id": "ChIJs1lxhJ3ffkcRtnlFGfJI7G0", "plus_code": {"compound_code": "9Q4M+WC Abano Terme, Province of Padua", "global_code": "8FQH9Q4M+WC"}, "price_level": 2, "rating": 4.7, "reference": "ChIJs1lxhJ3ffkcRtnlFGfJI7G0", "types": ["restaurant", "food", "point_of_interest", "establishment"], "user_ratings_total": 471}, {"business_status": "OPERATIONAL", "formatted_address": "Via Marsilio da Padova, 11, 35139 Padova PD", "geometry": {"location": {"lat": 45.4081502, "lng": 11.8760894}, "viewport": {"northeast": {"lat": 45.40950187989272, "lng": 11.87742652989272}, "southwest": {"lat": 45.40680222010728, "lng": 11.87472687010728}}}, "icon": "https://maps.gstatic.com/mapfiles/place_api/icons/v1/png_71/restaurant-71.png", "icon_background_color": "#FF9E67", "icon_mask_base_uri": "https://maps.gstatic.com/mapfiles/place_api/icons/v2/restaurant_pinlet", "name": "Ristorante Isola di Caprera", "opening_hours": {"open_now": true}, "photos": [{"height": 1200, "html_attributions": ["<a href=\"https://maps.google.com/maps/contrib/114368491516277087408\">Roberto Cenghiaro</a>"], "photo_reference": "AUGGfZmnV6ecy2aey0obxZYQHh5cRQ7FM1O_nmdHb_ctMTVAUXwhrB9D4qcr0sqmUWFB7742O8KVHRdtQAQKqOouroYSar1SvQ_aVDdLsksnA2dXaQ6hLUxjcJQqFpAzkmKytPg-ab32qIbSBtAEppoB3w441-L3WHoF6dmJxZjAbL-Y4aJt", "width": 1599}], "place_id": "ChIJnZHvp1rafkcRbZ3xQigVz54", "plus_code": {"compound_code": "CV5G+7C Padua, Province of Padua", "global_code": "8FQHCV5G+7C"}, "price_level": 2, "rating": 4.1, "reference": "ChIJnZHvp1rafkcRbZ3xQigVz54", "types": ["restaurant", "food", "point_of_interest", "establishment"], "user_ratings_total": 700}, {"business_status": "OPERATIONAL", "formatted_address": "Via Ronchi, 19, 35020 Legnaro PD", "geometry": {"location": {"lat": 45.3540992, "lng": 11.9767313}, "viewport": {"northeast": {"lat": 45.35541322989272, "lng": 11.97821657989272}, "southwest": {"lat": 45.35271357010728, "lng": 11.97551692010728}}}, "icon": "https://maps.gstatic.com/mapfiles/place_api/icons/v1/png_71/restaurant-71.png", "icon_background_color": "#FF9E67", "icon_mask_base_uri": "https://maps.gstatic.com/mapfiles/place_api/icons/v2/restaurant_pinlet", "name": "Trattoria Ristorante Savio Ivo", "opening_hours": {"open_now": true}, "photos": [{"height": 3024, "html_attributions": ["<a href=\"https://maps.google.com/maps/contrib/114365968023157743762\">Gianni</a>"], "photo_reference": "AUGGfZkHY8Xsex2wiksumzEYWbcWZb1L6i7ywS7oubnBAGvMtKyz8kaKvI_F6kk013SWydH54nJiamZcbqhMP7x3kYbP7w7YiJ868DgteQBaFZNfGd_6QfguiF3IQt8eVXIZggvdcv5DPEC2TOQlRhua_Up4M450VKNHSXbZwmqjI1BKJc3Q", "width": 3024}], "place_id": "ChIJuY_uOXfEfkcRuh4Jwjzkx4E", "plus_code": {"compound_code": "9X3G+JM Legnaro, Province of Padua", "global_code": "8FQH9X3G+JM"}, "price_level": 2, "rating": 4.5, "reference": "ChIJuY_uOXfEfkcRuh4Jwjzkx4E", "types": ["restaurant", "food", "point_of_interest", "establishment"], "user_ratings_total": 1748}, {"business_status": "OPERATIONAL", "formatted_address": "Via Romana, 5, 35031 Abano Terme PD", "geometry": {"location": {"lat": 45.3574218, "lng": 11.8109321}, "viewport": {"northeast": {"lat": 45.35889212989272, "lng": 11.81205207989272}, "southwest": {"lat": 45.35619247010728, "lng": 11.80935242010728}}}, "icon": "https://maps.gstatic.com/mapfiles/place_api/icons/v1/png_71/restaurant-71.png", "icon_background_color": "#FF9E67", "icon_mask_base_uri": "https://maps.gstatic.com/mapfiles/place_api/icons/v2/restaurant_pinlet", "name": "Ristorante Pizzeria Al Tabaco", "opening_hours": {"open_now": true}, "photos": [{"height": 1568, "html_attributions": ["<a href=\"https://maps.google.com/maps/contrib/105764405138742894418\">Giorgia Barbiero</a>"], "photo_reference": "AUGGfZnSXnDoLDCpGEP8x2lKisYz7qNnD5lVK-nEhdTwfBy3eLujXJJxTviBAtGY1ZahtO4YKHKnCnsblvvd1YjSXZ-CpnBNb0Dkoaentklud36m0smSdgM15cycOegcjf0I1tyk2p0oq_A_pBJvI2m7tMAiODldcx4D16U8Lus17YxBdd7d", "width": 2432}], "place_id": "ChIJ6T8Lo2HffkcRN0fOYPsDFW8", "plus_code": {"compound_code": "9R46+X9 Abano Terme, Province of Padua", "global_code": "8FQH9R46+X9"}, "price_level": 2, "rating": 4.3, "reference": "ChIJ6T8Lo2HffkcRN0fOYPsDFW8", "types": ["restaurant", "food", "point_of_interest", "establishment"], "user_ratings_total": 2755}, {"business_status": "OPERATIONAL", "formatted_address": "Str. del Santo, 144, 35010 Cadoneghe PD", "geometry": {"location": {"lat": 45.4824653, "lng": 11.8999265}, "viewport": {"northeast": {"lat": 45.48379712989272, "lng": 11.90145167989272}, "southwest": {"lat": 45.48109747010728, "lng": 11.89875202010728}}}, "icon": "https://maps.gstatic.com/mapfiles/place_api/icons/v1/png_71/restaurant-71.png", "icon_background_color": "#FF9E67", "icon_mask_base_uri": "https://maps.gstatic.com/mapfiles/place_api/icons/v2/restaurant_pinlet", "name": "Ristorante Ceccarello", "opening_hours": {"open_now": true}, "photos": [{"height": 3024, "html_attributions": ["<a href=\"https://maps.google.com/maps/contrib/103035320921712087132\">Silvano Ceccarello</a>"], "photo_reference": "AUGGfZkCMPUNcmHCYS_HXIqDBIMc3XapDDNJc4P_AtoxOjlKV6RYgVyOF2z0fXsSQwUjOoL4AOCXCnjnI-1fUH9q-IzknKVj-xEc77V1acTbLQSUHQMtfrJkKjA_LUXMXNoLDwxyO50lePCZrcFwjbJbc0LvHK9-jye_Z7BC4y0JUsWOXgIe", "width": 4032}], "place_id": "ChIJ4Y2UUhfRfkcR179vHPcoVQA", "plus_code": {"compound_code": "FVJX+XX Cadoneghe, Province of Padua", "global_code": "8FQHFVJX+XX"}, "price_level": 1, "rating": 4, "reference": "ChIJ4Y2UUhfRfkcR179vHPcoVQA", "types": ["restaurant", "food", "point_of_interest", "establishment"], "user_ratings_total": 465}], "status": "OK", "page_token": "AUGGfZmNmK-y042p1B1Y2i2us1QfapnWdRLQ2fgT737vwyg3YSut5YeejIxebA3HiyaIahQQkxOgTEfoyLmwU7-IqMmiRXVLO0L4wnnvpAN2S_Vgg1tyu-alcnSfF0WPtsxCYaJtW997AGLUbkamhj6NAox3rhTNuU-sa1ocbU_Wsg_wfTxVO2trVHMEqNQigchzww9miwpDtmEyjkJx5ijL5y_0Hihdo_6TIAoP3ulJa-gW0IyhJHpXID_S2rJPsgIw2oGfzTERISwK3Y114gzKcQedQ7SVqMm-rrgS7LGyhxY8xA3OTVT3RHCFg3K-4xL5PR1ZMMvhjiMTZpS9mFHdtGTlcyarCG53uFScAK-Vp3sFkdsfUqvgr59ragOUJJsLQijaMkB1sCVbMYZ94sJng6-kFbIRppTp0xewCZRySBLCJNKKBclWEW1sERpaP3M"}